[
    {
"BUSSTOP_ENG_NM" : "Chu-dong" , 
"BUSSTOP_NM" : "추동" , 
"BUSSTOP_SEQ" : "65" , 
"BUSSTOP_TP" : " " , 
"BUS_NODE_ID" : "8002710" , 
"BUS_STOP_ID" : "12760" , 
"GPS_LATI" : 36.364178, 
"GPS_LONG" : 127.47642, 
"ROAD_NM" : " " , 
"ROAD_NM_ADDR" : " " , 
"ROUTE_CD" : "30300117" , 
"TOTAL_DIST" : "49365" 
} ,
{
"BUSSTOP_ENG_NM" : "Wonjusan/Yangjimal" , 
"BUSSTOP_NM" : "원주산.양지말" , 
"BUSSTOP_SEQ" : "66" , 
"BUSSTOP_TP" : " " , 
"BUS_NODE_ID" : "8002370" , 
"BUS_STOP_ID" : "12820" , 
"GPS_LATI" : 36.36071, 
"GPS_LONG" : 127.48027, 
"ROAD_NM" : " " , 
"ROAD_NM_ADDR" : " " , 
"ROUTE_CD" : "30300117" , 
"TOTAL_DIST" : "49878" 
} ,
{
"BUSSTOP_ENG_NM" : "Jusan-dong/ Sangchon" , 
"BUSSTOP_NM" : "주산동/상촌" , 
"BUSSTOP_SEQ" : "67" , 
"BUSSTOP_TP" : " " , 
"BUS_NODE_ID" : "8002588" , 
"BUS_STOP_ID" : "12800" , 
"GPS_LATI" : 36.356647, 
"GPS_LONG" : 127.47798, 
"ROAD_NM" : " " , 
"ROAD_NM_ADDR" : " " , 
"ROUTE_CD" : "30300117" , 
"TOTAL_DIST" : "50544" 
} ,
{
"BUSSTOP_ENG_NM" : "Geumseong Village" , 
"BUSSTOP_NM" : "금성마을" , 
"BUSSTOP_SEQ" : "68" , 
"BUSSTOP_TP" : " " , 
"BUS_NODE_ID" : "8001222" , 
"BUS_STOP_ID" : "12780" , 
"GPS_LATI" : 36.353745, 
"GPS_LONG" : 127.47744, 
"ROAD_NM" : "비룡로" , 
"ROAD_NM_ADDR" : " " , 
"ROUTE_CD" : "30300117" , 
"TOTAL_DIST" : "50961" 
} ,
{
"BUSSTOP_ENG_NM" : "Biryong/Bireumdeul" , 
"BUSSTOP_NM" : "비룡교차로" , 
"BUSSTOP_SEQ" : "69" , 
"BUSSTOP_TP" : " " , 
"BUS_NODE_ID" : "8001805" , 
"BUS_STOP_ID" : "12640" , 
"GPS_LATI" : 36.348557, 
"GPS_LONG" : 127.473434, 
"ROAD_NM" : "비룡로" , 
"ROAD_NM_ADDR" : " " , 
"ROUTE_CD" : "30300117" , 
"TOTAL_DIST" : "51888" 
} ,
{
"BUSSTOP_ENG_NM" : "Biryong / Saedongne" , 
"BUSSTOP_NM" : "비룡/새동네" , 
"BUSSTOP_SEQ" : "70" , 
"BUSSTOP_TP" : " " , 
"BUS_NODE_ID" : "8001807" , 
"BUS_STOP_ID" : "12700" , 
"GPS_LATI" : 36.343853, 
"GPS_LONG" : 127.47778, 
"ROAD_NM" : "비룡로" , 
"ROAD_NM_ADDR" : " " , 
"ROUTE_CD" : "30300117" , 
"TOTAL_DIST" : "52631" 
} ,
{
"BUSSTOP_ENG_NM" : "Biryong/Julgol" , 
"BUSSTOP_NM" : "비룡/줄골" , 
"BUSSTOP_SEQ" : "71" , 
"BUSSTOP_TP" : " " , 
"BUS_NODE_ID" : "8001809" , 
"BUS_STOP_ID" : "12710" , 
"GPS_LATI" : 36.338375, 
"GPS_LONG" : 127.47777, 
"ROAD_NM" : "비룡로" , 
"ROAD_NM_ADDR" : " " , 
"ROUTE_CD" : "30300117" , 
"TOTAL_DIST" : "53277" 
} ,
{
"BUSSTOP_ENG_NM" : "Dongsin-High School" , 
"BUSSTOP_NM" : "대전동신과학고" , 
"BUSSTOP_SEQ" : "72" , 
"BUSSTOP_TP" : " " , 
"BUS_NODE_ID" : "8006000" , 
"BUS_STOP_ID" : "12670" , 
"GPS_LATI" : 36.33222, 
"GPS_LONG" : 127.476906, 
"ROAD_NM" : " " , 
"ROAD_NM_ADDR" : " " , 
"ROUTE_CD" : "30300117" , 
"TOTAL_DIST" : "54034" 
} ,
{
"BUSSTOP_ENG_NM" : "Biryong-dong Entrance" , 
"BUSSTOP_NM" : "비룡동입구" , 
"BUSSTOP_SEQ" : "1" , 
"BUSSTOP_TP" : "1" , 
"BUS_NODE_ID" : "8001810" , 
"BUS_STOP_ID" : "12690" , 
"GPS_LATI" : 36.332767, 
"GPS_LONG" : 127.47757, 
"ROAD_NM" : "비룡로" , 
"ROAD_NM_ADDR" : " " , 
"ROUTE_CD" : "30300118" , 
"TOTAL_DIST" : "162" 
} ,
{
"BUSSTOP_ENG_NM" : "Biryong/Julgol" , 
"BUSSTOP_NM" : "비룡/줄골" , 
"BUSSTOP_SEQ" : "2" , 
"BUSSTOP_TP" : " " , 
"BUS_NODE_ID" : "8001808" , 
"BUS_STOP_ID" : "12730" , 
"GPS_LATI" : 36.338417, 
"GPS_LONG" : 127.47788, 
"ROAD_NM" : "비룡로" , 
"ROAD_NM_ADDR" : " " , 
"ROUTE_CD" : "30300118" , 
"TOTAL_DIST" : "818" 
} ,
{
"BUSSTOP_ENG_NM" : "Biryong / Saedongne" , 
"BUSSTOP_NM" : "비룡/새동네" , 
"BUSSTOP_SEQ" : "3" , 
"BUSSTOP_TP" : " " , 
"BUS_NODE_ID" : "8001806" , 
"BUS_STOP_ID" : "12720" , 
"GPS_LATI" : 36.343887, 
"GPS_LONG" : 127.47788, 
"ROAD_NM" : "비룡로" , 
"ROAD_NM_ADDR" : " " , 
"ROUTE_CD" : "30300118" , 
"TOTAL_DIST" : "1458" 
} ,
{
"BUSSTOP_ENG_NM" : "Biryong/Bireumdeul" , 
"BUSSTOP_NM" : "비룡교차로" , 
"BUSSTOP_SEQ" : "4" , 
"BUSSTOP_TP" : " " , 
"BUS_NODE_ID" : "8001804" , 
"BUS_STOP_ID" : "12650" , 
"GPS_LATI" : 36.348442, 
"GPS_LONG" : 127.47346, 
"ROAD_NM" : "비룡로" , 
"ROAD_NM_ADDR" : " " , 
"ROUTE_CD" : "30300118" , 
"TOTAL_DIST" : "2190" 
} ,
{
"BUSSTOP_ENG_NM" : "Geumseong Village" , 
"BUSSTOP_NM" : "금성마을" , 
"BUSSTOP_SEQ" : "5" , 
"BUSSTOP_TP" : " " , 
"BUS_NODE_ID" : "8001221" , 
"BUS_STOP_ID" : "12790" , 
"GPS_LATI" : 36.353687, 
"GPS_LONG" : 127.47752, 
"ROAD_NM" : "비룡로" , 
"ROAD_NM_ADDR" : " " , 
"ROUTE_CD" : "30300118" , 
"TOTAL_DIST" : "3124" 
} ,
{
"BUSSTOP_ENG_NM" : "Jusan-dong/ Sangchon" , 
"BUSSTOP_NM" : "주산동/상촌" , 
"BUSSTOP_SEQ" : "6" , 
"BUSSTOP_TP" : " " , 
"BUS_NODE_ID" : "8002587" , 
"BUS_STOP_ID" : "12810" , 
"GPS_LATI" : 36.356556, 
"GPS_LONG" : 127.47801, 
"ROAD_NM" : " " , 
"ROAD_NM_ADDR" : " " , 
"ROUTE_CD" : "30300118" , 
"TOTAL_DIST" : "3537" 
} ,
{
"BUSSTOP_ENG_NM" : "Wonjusan/Yangjimal" , 
"BUSSTOP_NM" : "원주산.양지말" , 
"BUSSTOP_SEQ" : "7" , 
"BUSSTOP_TP" : " " , 
"BUS_NODE_ID" : "8002369" , 
"BUS_STOP_ID" : "12830" , 
"GPS_LATI" : 36.360798, 
"GPS_LONG" : 127.480354, 
"ROAD_NM" : " " , 
"ROAD_NM_ADDR" : " " , 
"ROUTE_CD" : "30300118" , 
"TOTAL_DIST" : "4212" 
} ,
{
"BUSSTOP_ENG_NM" : "Chu-dong" , 
"BUSSTOP_NM" : "추동" , 
"BUSSTOP_SEQ" : "8" , 
"BUSSTOP_TP" : " " , 
"BUS_NODE_ID" : "8002709" , 
"BUS_STOP_ID" : "12770" , 
"GPS_LATI" : 36.36415, 
"GPS_LONG" : 127.47658, 
"ROAD_NM" : " " , 
"ROAD_NM_ADDR" : " " , 
"ROUTE_CD" : "30300118" , 
"TOTAL_DIST" : "4718" 
} ,
{
"BUSSTOP_ENG_NM" : "Chu-dong Water Plant" , 
"BUSSTOP_NM" : "추동취수장" , 
"BUSSTOP_SEQ" : "9" , 
"BUSSTOP_TP" : " " , 
"BUS_NODE_ID" : "8002716" , 
"BUS_STOP_ID" : "12610" , 
"GPS_LATI" : 36.37068, 
"GPS_LONG" : 127.475845, 
"ROAD_NM" : " " , 
"ROAD_NM_ADDR" : " " , 
"ROUTE_CD" : "30300118" , 
"TOTAL_DIST" : "5479" 
} ,
{
"BUSSTOP_ENG_NM" : "Dongmyeong Elementary School" , 
"BUSSTOP_NM" : "동명초등학교" , 
"BUSSTOP_SEQ" : "10" , 
"BUSSTOP_TP" : " " , 
"BUS_NODE_ID" : "8001518" , 
"BUS_STOP_ID" : "12580" , 
"GPS_LATI" : 36.373413, 
"GPS_LONG" : 127.47544, 
"ROAD_NM" : "비룡로" , 
"ROAD_NM_ADDR" : " " , 
"ROUTE_CD" : "30300118" , 
"TOTAL_DIST" : "5790" 
} ,
{
"BUSSTOP_ENG_NM" : "Jungchu Village / Garaeul" , 
"BUSSTOP_NM" : "중추마을/가래울" , 
"BUSSTOP_SEQ" : "11" , 
"BUSSTOP_TP" : " " , 
"BUS_NODE_ID" : "8002656" , 
"BUS_STOP_ID" : "12560" , 
"GPS_LATI" : 36.375736, 
"GPS_LONG" : 127.4755, 
"ROAD_NM" : " " , 
"ROAD_NM_ADDR" : " " , 
"ROUTE_CD" : "30300118" , 
"TOTAL_DIST" : "6066" 
} ,
{
"BUSSTOP_ENG_NM" : "Masan B Zone" , 
"BUSSTOP_NM" : "마산B지구" , 
"BUSSTOP_SEQ" : "12" , 
"BUSSTOP_TP" : " " , 
"BUS_NODE_ID" : "8001593" , 
"BUS_STOP_ID" : "12630" , 
"GPS_LATI" : 36.379017, 
"GPS_LONG" : 127.47793, 
"ROAD_NM" : "비룡로" , 
"ROAD_NM_ADDR" : " " , 
"ROUTE_CD" : "30300118" , 
"TOTAL_DIST" : "6490" 
} ,
{
"BUSSTOP_ENG_NM" : "Masan /Jindeungnal" , 
"BUSSTOP_NM" : "마산/진등날" , 
"BUSSTOP_SEQ" : "13" , 
"BUSSTOP_TP" : " " , 
"BUS_NODE_ID" : "8001591" , 
"BUS_STOP_ID" : "12850" , 
"GPS_LATI" : 36.383476, 
"GPS_LONG" : 127.47977, 
"ROAD_NM" : "비룡로" , 
"ROAD_NM_ADDR" : " " , 
"ROUTE_CD" : "30300118" , 
"TOTAL_DIST" : "7041" 
} ,
{
"BUSSTOP_ENG_NM" : "Wonmasan" , 
"BUSSTOP_NM" : "원마산" , 
"BUSSTOP_SEQ" : "14" , 
"BUSSTOP_TP" : " " , 
"BUS_NODE_ID" : "8002359" , 
"BUS_STOP_ID" : "12880" , 
"GPS_LATI" : 36.38643, 
"GPS_LONG" : 127.48083, 
"ROAD_NM" : " " , 
"ROAD_NM_ADDR" : " " , 
"ROUTE_CD" : "30300118" , 
"TOTAL_DIST" : "7390" 
} ,
{
"BUSSTOP_ENG_NM" : "---" , 
"BUSSTOP_NM" : "효평고개소공원" , 
"BUSSTOP_SEQ" : "15" , 
"BUSSTOP_TP" : " " , 
"BUS_NODE_ID" : "8007179" , 
"BUS_STOP_ID" : "14460" , 
"GPS_LATI" : 36.39268, 
"GPS_LONG" : 127.475845, 
"ROAD_NM" : " " , 
"ROAD_NM_ADDR" : " " , 
"ROUTE_CD" : "30300118" , 
"TOTAL_DIST" : "8572" 
} ,
{
"BUSSTOP_ENG_NM" : "Hyopyeong-dong" , 
"BUSSTOP_NM" : "효평동" , 
"BUSSTOP_SEQ" : "16" , 
"BUSSTOP_TP" : " " , 
"BUS_NODE_ID" : "8003024" , 
"BUS_STOP_ID" : "12910" , 
"GPS_LATI" : 36.39875, 
"GPS_LONG" : 127.46813, 
"ROAD_NM" : " " , 
"ROAD_NM_ADDR" : " " , 
"ROUTE_CD" : "30300118" , 
"TOTAL_DIST" : "10050" 
} ,
{
"BUSSTOP_ENG_NM" : "Hyopyeong Elementary School" , 
"BUSSTOP_NM" : "효평마루" , 
"BUSSTOP_SEQ" : "17" , 
"BUSSTOP_TP" : " " , 
"BUS_NODE_ID" : "8003030" , 
"BUS_STOP_ID" : "12930" , 
"GPS_LATI" : 36.40645, 
"GPS_LONG" : 127.473564, 
"ROAD_NM" : " " , 
"ROAD_NM_ADDR" : " " , 
"ROUTE_CD" : "30300118" , 
"TOTAL_DIST" : "11067" 
} ,
{
"BUSSTOP_ENG_NM" : "Hyopyeong Samgeori(Intersection)" , 
"BUSSTOP_NM" : "효평삼거리" , 
"BUSSTOP_SEQ" : "18" , 
"BUSSTOP_TP" : " " , 
"BUS_NODE_ID" : "8003027" , 
"BUS_STOP_ID" : "12950" , 
"GPS_LATI" : 36.40934, 
"GPS_LONG" : 127.47368, 
"ROAD_NM" : " " , 
"ROAD_NM_ADDR" : " " , 
"ROUTE_CD" : "30300118" , 
"TOTAL_DIST" : "11390" 
} ,
{
"BUSSTOP_ENG_NM" : "Jik-dong Terminal" , 
"BUSSTOP_NM" : "직동종점" , 
"BUSSTOP_SEQ" : "19" , 
"BUSSTOP_TP" : " " , 
"BUS_NODE_ID" : "8002665" , 
"BUS_STOP_ID" : "12960" , 
"GPS_LATI" : 36.41759, 
"GPS_LONG" : 127.479034, 
"ROAD_NM" : " " , 
"ROAD_NM_ADDR" : " " , 
"ROUTE_CD" : "30300118" , 
"TOTAL_DIST" : "12494" 
} ,
{
"BUSSTOP_ENG_NM" : "Jik-dong " , 
"BUSSTOP_NM" : "직동종점" , 
"BUSSTOP_SEQ" : "20" , 
"BUSSTOP_TP" : " " , 
"BUS_NODE_ID" : "9002665" , 
"BUS_STOP_ID" : "12960" , 
"GPS_LATI" : 36.41642, 
"GPS_LONG" : 127.47764, 
"ROAD_NM" : " " , 
"ROAD_NM_ADDR" : " " , 
"ROUTE_CD" : "30300118" , 
"TOTAL_DIST" : "12677" 
} ,
{
"BUSSTOP_ENG_NM" : "Hyopyeong-samgeori " , 
"BUSSTOP_NM" : "효평삼거리" , 
"BUSSTOP_SEQ" : "21" , 
"BUSSTOP_TP" : " " , 
"BUS_NODE_ID" : "9003028" , 
"BUS_STOP_ID" : "12940" , 
"GPS_LATI" : 36.409664, 
"GPS_LONG" : 127.47388, 
"ROAD_NM" : " " , 
"ROAD_NM_ADDR" : " " , 
"ROUTE_CD" : "30300118" , 
"TOTAL_DIST" : "13535" 
} ,
{
"BUSSTOP_ENG_NM" : "Ihyeon-dong" , 
"BUSSTOP_NM" : "이현동" , 
"BUSSTOP_SEQ" : "22" , 
"BUSSTOP_TP" : " " , 
"BUS_NODE_ID" : "8002475" , 
"BUS_STOP_ID" : "52570" , 
"GPS_LATI" : 36.41203, 
"GPS_LONG" : 127.46724, 
"ROAD_NM" : " " , 
"ROAD_NM_ADDR" : " " , 
"ROUTE_CD" : "30300118" , 
"TOTAL_DIST" : "15108" 
} ,
{
"BUSSTOP_ENG_NM" : "Ihyeon-dong Village Information Center" , 
"BUSSTOP_NM" : "이현동마을정보센터" , 
"BUSSTOP_SEQ" : "23" , 
"BUSSTOP_TP" : " " , 
"BUS_NODE_ID" : "8002478" , 
"BUS_STOP_ID" : "52570" , 
"GPS_LATI" : 36.41138, 
"GPS_LONG" : 127.46309, 
"ROAD_NM" : " " , 
"ROAD_NM_ADDR" : " " , 
"ROUTE_CD" : "30300118" , 
"TOTAL_DIST" : "15589" 
} ,
{
"BUSSTOP_ENG_NM" : "Ihyeon-dong" , 
"BUSSTOP_NM" : "이현동" , 
"BUSSTOP_SEQ" : "24" , 
"BUSSTOP_TP" : " " , 
"BUS_NODE_ID" : "8002476" , 
"BUS_STOP_ID" : "52550" , 
"GPS_LATI" : 36.414997, 
"GPS_LONG" : 127.457924, 
"ROAD_NM" : " " , 
"ROAD_NM_ADDR" : " " , 
"ROUTE_CD" : "30300118" , 
"TOTAL_DIST" : "16207" 
} ,
{
"BUSSTOP_ENG_NM" : "Galjeon-dong" , 
"BUSSTOP_NM" : "갈전동" , 
"BUSSTOP_SEQ" : "25" , 
"BUSSTOP_TP" : " " , 
"BUS_NODE_ID" : "8001066" , 
"BUS_STOP_ID" : "52610" , 
"GPS_LATI" : 36.427624, 
"GPS_LONG" : 127.465836, 
"ROAD_NM" : "비룡로" , 
"ROAD_NM_ADDR" : " " , 
"ROUTE_CD" : "30300118" , 
"TOTAL_DIST" : "17884" 
} ,
{
"BUSSTOP_ENG_NM" : "Samjeong-dong / Farm Machine Warehouse" , 
"BUSSTOP_NM" : "갈전동.아래갈밭" , 
"BUSSTOP_SEQ" : "26" , 
"BUSSTOP_TP" : " " , 
"BUS_NODE_ID" : "8001885" , 
"BUS_STOP_ID" : "52630" , 
"GPS_LATI" : 36.431103, 
"GPS_LONG" : 127.46795, 
"ROAD_NM" : "대청호수로" , 
"ROAD_NM_ADDR" : " " , 
"ROUTE_CD" : "30300118" , 
"TOTAL_DIST" : "18375" 
} ,
{
"BUSSTOP_ENG_NM" : "Samjeong-dong" , 
"BUSSTOP_NM" : "삼정동" , 
"BUSSTOP_SEQ" : "27" , 
"BUSSTOP_TP" : " " , 
"BUS_NODE_ID" : "8001881" , 
"BUS_STOP_ID" : "52660" , 
"GPS_LATI" : 36.43775, 
"GPS_LONG" : 127.463135, 
"ROAD_NM" : "옥천로" , 
"ROAD_NM_ADDR" : " " , 
"ROUTE_CD" : "30300118" , 
"TOTAL_DIST" : "20291" 
} ,
{
"BUSSTOP_ENG_NM" : "Samjeong-dong / Sogol Village" , 
"BUSSTOP_NM" : "삼정동.소골마을" , 
"BUSSTOP_SEQ" : "28" , 
"BUSSTOP_TP" : " " , 
"BUS_NODE_ID" : "8001887" , 
"BUS_STOP_ID" : "52710" , 
"GPS_LATI" : 36.442608, 
"GPS_LONG" : 127.46668, 
"ROAD_NM" : "대청호수로" , 
"ROAD_NM_ADDR" : " " , 
"ROUTE_CD" : "30300118" , 
"TOTAL_DIST" : "21043" 
} ,
{
"BUSSTOP_ENG_NM" : "Samjeong-dong / Geumjanggol-gil" , 
"BUSSTOP_NM" : "삼정동.근장골길" , 
"BUSSTOP_SEQ" : "29" , 
"BUSSTOP_TP" : " " , 
"BUS_NODE_ID" : "8001884" , 
"BUS_STOP_ID" : "52690" , 
"GPS_LATI" : 36.44739, 
"GPS_LONG" : 127.46538, 
"ROAD_NM" : "대청호수로" , 
"ROAD_NM_ADDR" : " " , 
"ROUTE_CD" : "30300118" , 
"TOTAL_DIST" : "21694" 
} ,
{
"BUSSTOP_ENG_NM" : "Seokbong Filtration Plant" , 
"BUSSTOP_NM" : "삼정취수장" , 
"BUSSTOP_SEQ" : "30" , 
"BUSSTOP_TP" : " " , 
"BUS_NODE_ID" : "8001967" , 
"BUS_STOP_ID" : "52640" , 
"GPS_LATI" : 36.449474, 
"GPS_LONG" : 127.45641, 
"ROAD_NM" : "대청로" , 
"ROAD_NM_ADDR" : " " , 
"ROUTE_CD" : "30300118" , 
"TOTAL_DIST" : "22577" 
} ,
{
"BUSSTOP_ENG_NM" : "Daecheong Auxiliary Dam" , 
"BUSSTOP_NM" : "보조댐" , 
"BUSSTOP_SEQ" : "31" , 
"BUSSTOP_TP" : " " , 
"BUS_NODE_ID" : "8001752" , 
"BUS_STOP_ID" : "52520" , 
"GPS_LATI" : 36.448803, 
"GPS_LONG" : 127.45228, 
"ROAD_NM" : "대청로" , 
"ROAD_NM_ADDR" : " " , 
"ROUTE_CD" : "30300118" , 
"TOTAL_DIST" : "22971" 
} ,
{
"BUSSTOP_ENG_NM" : "Sintanjin Water Plant" , 
"BUSSTOP_NM" : "금강로하스타워" , 
"BUSSTOP_SEQ" : "32" , 
"BUSSTOP_TP" : " " , 
"BUS_NODE_ID" : "8002136" , 
"BUS_STOP_ID" : "52990" , 
"GPS_LATI" : 36.4489, 
"GPS_LONG" : 127.44465, 
"ROAD_NM" : "대청로" , 
"ROAD_NM_ADDR" : " " , 
"ROUTE_CD" : "30300118" , 
"TOTAL_DIST" : "23659" 
} ,
{
"BUSSTOP_ENG_NM" : "Yongjeong Elementary School" , 
"BUSSTOP_NM" : "동일스위트리버스카이" , 
"BUSSTOP_SEQ" : "33" , 
"BUSSTOP_TP" : " " , 
"BUS_NODE_ID" : "8002320" , 
"BUS_STOP_ID" : "52960" , 
"GPS_LATI" : 36.452747, 
"GPS_LONG" : 127.43391, 
"ROAD_NM" : " " , 
"ROAD_NM_ADDR" : " " , 
"ROUTE_CD" : "30300118" , 
"TOTAL_DIST" : "24967" 
} ,
{
"BUSSTOP_ENG_NM" : "Sintanjin-dong Community Center" , 
"BUSSTOP_NM" : "신탄진동행정복지센터" , 
"BUSSTOP_SEQ" : "34" , 
"BUSSTOP_TP" : " " , 
"BUS_NODE_ID" : "8002959" , 
"BUS_STOP_ID" : "52860" , 
"GPS_LATI" : 36.451668, 
"GPS_LONG" : 127.430664, 
"ROAD_NM" : " " , 
"ROAD_NM_ADDR" : " " , 
"ROUTE_CD" : "30300118" , 
"TOTAL_DIST" : "25282" 
} ,
{
"BUSSTOP_ENG_NM" : "Sintanjin Station" , 
"BUSSTOP_NM" : "신탄진역" , 
"BUSSTOP_SEQ" : "35" , 
"BUSSTOP_TP" : " " , 
"BUS_NODE_ID" : "8002133" , 
"BUS_STOP_ID" : "52790" , 
"GPS_LATI" : 36.449863, 
"GPS_LONG" : 127.428955, 
"ROAD_NM" : "신탄진로" , 
"ROAD_NM_ADDR" : " " , 
"ROUTE_CD" : "30300118" , 
"TOTAL_DIST" : "25594" 
} ,
{
"BUSSTOP_ENG_NM" : "Namgyeong Village" , 
"BUSSTOP_NM" : "남경마을" , 
"BUSSTOP_SEQ" : "36" , 
"BUSSTOP_TP" : " " , 
"BUS_NODE_ID" : "8001241" , 
"BUS_STOP_ID" : "51720" , 
"GPS_LATI" : 36.44464, 
"GPS_LONG" : 127.42941, 
"ROAD_NM" : "신탄진로" , 
"ROAD_NM_ADDR" : " " , 
"ROUTE_CD" : "30300118" , 
"TOTAL_DIST" : "26181" 
} ,
{
"BUSSTOP_ENG_NM" : "Sintanjin Gantry" , 
"BUSSTOP_NM" : "신탄진과선교" , 
"BUSSTOP_SEQ" : "37" , 
"BUSSTOP_TP" : " " , 
"BUS_NODE_ID" : "8002129" , 
"BUS_STOP_ID" : "52820" , 
"GPS_LATI" : 36.44258, 
"GPS_LONG" : 127.42957, 
"ROAD_NM" : "대청로" , 
"ROAD_NM_ADDR" : " " , 
"ROUTE_CD" : "30300118" , 
"TOTAL_DIST" : "27043" 
} ,
{
"BUSSTOP_ENG_NM" : "Hanil Transport Corporation" , 
"BUSSTOP_NM" : "신탄진26통" , 
"BUSSTOP_SEQ" : "38" , 
"BUSSTOP_TP" : " " , 
"BUS_NODE_ID" : "8002957" , 
"BUS_STOP_ID" : "52890" , 
"GPS_LATI" : 36.443947, 
"GPS_LONG" : 127.43371, 
"ROAD_NM" : " " , 
"ROAD_NM_ADDR" : " " , 
"ROUTE_CD" : "30300118" , 
"TOTAL_DIST" : "27769" 
} ,
{
"BUSSTOP_ENG_NM" : "Sintanjin Filtration Plant" , 
"BUSSTOP_NM" : "신탄진정수장" , 
"BUSSTOP_SEQ" : "39" , 
"BUSSTOP_TP" : " " , 
"BUS_NODE_ID" : "8005981" , 
"BUS_STOP_ID" : "53300" , 
"GPS_LATI" : 36.442837, 
"GPS_LONG" : 127.44108, 
"ROAD_NM" : " " , 
"ROAD_NM_ADDR" : " " , 
"ROUTE_CD" : "30300118" , 
"TOTAL_DIST" : "28522" 
} ,
{
"BUSSTOP_ENG_NM" : "Yongho-dong Terminal" , 
"BUSSTOP_NM" : "용호동종점" , 
"BUSSTOP_SEQ" : "40" , 
"BUSSTOP_TP" : "2" , 
"BUS_NODE_ID" : "8002327" , 
"BUS_STOP_ID" : "52980" , 
"GPS_LATI" : 36.436035, 
"GPS_LONG" : 127.44899, 
"ROAD_NM" : " " , 
"ROAD_NM_ADDR" : " " , 
"ROUTE_CD" : "30300118" , 
"TOTAL_DIST" : "29644" 
} ,
{
"BUSSTOP_ENG_NM" : "Yongho-dong Terminal" , 
"BUSSTOP_NM" : "용호동종점" , 
"BUSSTOP_SEQ" : "41" , 
"BUSSTOP_TP" : " " , 
"BUS_NODE_ID" : "9002327" , 
"BUS_STOP_ID" : "52980" , 
"GPS_LATI" : 36.437256, 
"GPS_LONG" : 127.4481, 
"ROAD_NM" : " " , 
"ROAD_NM_ADDR" : " " , 
"ROUTE_CD" : "30300118" , 
"TOTAL_DIST" : "29821" 
} ,
{
"BUSSTOP_ENG_NM" : "Sintanjin Filtration Plant" , 
"BUSSTOP_NM" : "신탄진정수장" , 
"BUSSTOP_SEQ" : "42" , 
"BUSSTOP_TP" : " " , 
"BUS_NODE_ID" : "8005980" , 
"BUS_STOP_ID" : "53140" , 
"GPS_LATI" : 36.44294, 
"GPS_LONG" : 127.44115, 
"ROAD_NM" : " " , 
"ROAD_NM_ADDR" : " " , 
"ROUTE_CD" : "30300118" , 
"TOTAL_DIST" : "30772" 
} ,
{
"BUSSTOP_ENG_NM" : "Hanil Transport Corporation" , 
"BUSSTOP_NM" : "신탄진26통" , 
"BUSSTOP_SEQ" : "43" , 
"BUSSTOP_TP" : " " , 
"BUS_NODE_ID" : "8002958" , 
"BUS_STOP_ID" : "52880" , 
"GPS_LATI" : 36.44401, 
"GPS_LONG" : 127.43361, 
"ROAD_NM" : " " , 
"ROAD_NM_ADDR" : " " , 
"ROUTE_CD" : "30300118" , 
"TOTAL_DIST" : "31535" 
} ,
{
"BUSSTOP_ENG_NM" : "Namgyeong Village" , 
"BUSSTOP_NM" : "남경마을" , 
"BUSSTOP_SEQ" : "44" , 
"BUSSTOP_TP" : " " , 
"BUS_NODE_ID" : "8001242" , 
"BUS_STOP_ID" : "52830" , 
"GPS_LATI" : 36.444923, 
"GPS_LONG" : 127.42969, 
"ROAD_NM" : "신탄진로" , 
"ROAD_NM_ADDR" : " " , 
"ROUTE_CD" : "30300118" , 
"TOTAL_DIST" : "31947" 
} ,
{
"BUSSTOP_ENG_NM" : "Sintanjin Station" , 
"BUSSTOP_NM" : "신탄진역" , 
"BUSSTOP_SEQ" : "45" , 
"BUSSTOP_TP" : " " , 
"BUS_NODE_ID" : "8002134" , 
"BUS_STOP_ID" : "52810" , 
"GPS_LATI" : 36.449253, 
"GPS_LONG" : 127.42927, 
"ROAD_NM" : "신탄진로" , 
"ROAD_NM_ADDR" : " " , 
"ROUTE_CD" : "30300118" , 
"TOTAL_DIST" : "32393" 
} ,
{
"BUSSTOP_ENG_NM" : "Sintanjin-dong Community Center" , 
"BUSSTOP_NM" : "신탄진동행정복지센터" , 
"BUSSTOP_SEQ" : "46" , 
"BUSSTOP_TP" : " " , 
"BUS_NODE_ID" : "8002130" , 
"BUS_STOP_ID" : "52840" , 
"GPS_LATI" : 36.45146, 
"GPS_LONG" : 127.430374, 
"ROAD_NM" : "대청로" , 
"ROAD_NM_ADDR" : " " , 
"ROUTE_CD" : "30300118" , 
"TOTAL_DIST" : "32747" 
} ,
{
"BUSSTOP_ENG_NM" : "Yongjeong Elementary School" , 
"BUSSTOP_NM" : "용정초등학교" , 
"BUSSTOP_SEQ" : "47" , 
"BUSSTOP_TP" : " " , 
"BUS_NODE_ID" : "8002319" , 
"BUS_STOP_ID" : "52950" , 
"GPS_LATI" : 36.453426, 
"GPS_LONG" : 127.43602, 
"ROAD_NM" : " " , 
"ROAD_NM_ADDR" : " " , 
"ROUTE_CD" : "30300118" , 
"TOTAL_DIST" : "33298" 
} ,
{
"BUSSTOP_ENG_NM" : "Sintanjin Water Plant" , 
"BUSSTOP_NM" : "금강로하스타워" , 
"BUSSTOP_SEQ" : "48" , 
"BUSSTOP_TP" : " " , 
"BUS_NODE_ID" : "8002135" , 
"BUS_STOP_ID" : "53000" , 
"GPS_LATI" : 36.448536, 
"GPS_LONG" : 127.44346, 
"ROAD_NM" : "대청로" , 
"ROAD_NM_ADDR" : " " , 
"ROUTE_CD" : "30300118" , 
"TOTAL_DIST" : "34281" 
} ,
{
"BUSSTOP_ENG_NM" : "Daecheong Auxiliary Dam" , 
"BUSSTOP_NM" : "보조댐" , 
"BUSSTOP_SEQ" : "49" , 
"BUSSTOP_TP" : " " , 
"BUS_NODE_ID" : "8001751" , 
"BUS_STOP_ID" : "52530" , 
"GPS_LATI" : 36.448708, 
"GPS_LONG" : 127.452324, 
"ROAD_NM" : "대청로" , 
"ROAD_NM_ADDR" : " " , 
"ROUTE_CD" : "30300118" , 
"TOTAL_DIST" : "35091" 
} ,
{
"BUSSTOP_ENG_NM" : "Seokbong Filtration Plant" , 
"BUSSTOP_NM" : "삼정취수장" , 
"BUSSTOP_SEQ" : "50" , 
"BUSSTOP_TP" : " " , 
"BUS_NODE_ID" : "8001966" , 
"BUS_STOP_ID" : "52650" , 
"GPS_LATI" : 36.449356, 
"GPS_LONG" : 127.45637, 
"ROAD_NM" : "대청로" , 
"ROAD_NM_ADDR" : " " , 
"ROUTE_CD" : "30300118" , 
"TOTAL_DIST" : "35475" 
} ,
{
"BUSSTOP_ENG_NM" : "Samjeong-dong / Geumjanggol-gil" , 
"BUSSTOP_NM" : "삼정동.근장골길" , 
"BUSSTOP_SEQ" : "51" , 
"BUSSTOP_TP" : " " , 
"BUS_NODE_ID" : "8001883" , 
"BUS_STOP_ID" : "52680" , 
"GPS_LATI" : 36.447323, 
"GPS_LONG" : 127.46533, 
"ROAD_NM" : "대청호수로" , 
"ROAD_NM_ADDR" : " " , 
"ROUTE_CD" : "30300118" , 
"TOTAL_DIST" : "36362" 
} ,
{
"BUSSTOP_ENG_NM" : "Samjeong-dong / Sogol Village" , 
"BUSSTOP_NM" : "삼정동.소골마을" , 
"BUSSTOP_SEQ" : "52" , 
"BUSSTOP_TP" : " " , 
"BUS_NODE_ID" : "8001888" , 
"BUS_STOP_ID" : "52700" , 
"GPS_LATI" : 36.44264, 
"GPS_LONG" : 127.46657, 
"ROAD_NM" : "대청호수로" , 
"ROAD_NM_ADDR" : " " , 
"ROUTE_CD" : "30300118" , 
"TOTAL_DIST" : "37001" 
} ,
{
"BUSSTOP_ENG_NM" : "Samjeong-dong" , 
"BUSSTOP_NM" : "삼정동" , 
"BUSSTOP_SEQ" : "53" , 
"BUSSTOP_TP" : " " , 
"BUS_NODE_ID" : "8001882" , 
"BUS_STOP_ID" : "52670" , 
"GPS_LATI" : 36.43782, 
"GPS_LONG" : 127.463066, 
"ROAD_NM" : "옥천로" , 
"ROAD_NM_ADDR" : " " , 
"ROUTE_CD" : "30300118" , 
"TOTAL_DIST" : "37751" 
} ,
{
"BUSSTOP_ENG_NM" : "Samjeong-dong / Farm Machine Warehouse" , 
"BUSSTOP_NM" : "갈전동.아래갈밭" , 
"BUSSTOP_SEQ" : "54" , 
"BUSSTOP_TP" : " " , 
"BUS_NODE_ID" : "8001886" , 
"BUS_STOP_ID" : "52620" , 
"GPS_LATI" : 36.43113, 
"GPS_LONG" : 127.46784, 
"ROAD_NM" : "대청호수로" , 
"ROAD_NM_ADDR" : " " , 
"ROUTE_CD" : "30300118" , 
"TOTAL_DIST" : "39672" 
} ,
{
"BUSSTOP_ENG_NM" : "Galjeon-dong" , 
"BUSSTOP_NM" : "갈전동" , 
"BUSSTOP_SEQ" : "55" , 
"BUSSTOP_TP" : " " , 
"BUS_NODE_ID" : "8001067" , 
"BUS_STOP_ID" : "52600" , 
"GPS_LATI" : 36.42773, 
"GPS_LONG" : 127.465805, 
"ROAD_NM" : "비룡로" , 
"ROAD_NM_ADDR" : " " , 
"ROUTE_CD" : "30300118" , 
"TOTAL_DIST" : "40154" 
} ,
{
"BUSSTOP_ENG_NM" : "Ihyeon-dong" , 
"BUSSTOP_NM" : "이현동" , 
"BUSSTOP_SEQ" : "56" , 
"BUSSTOP_TP" : " " , 
"BUS_NODE_ID" : "8002477" , 
"BUS_STOP_ID" : "52540" , 
"GPS_LATI" : 36.414913, 
"GPS_LONG" : 127.45786, 
"ROAD_NM" : " " , 
"ROAD_NM_ADDR" : " " , 
"ROUTE_CD" : "30300118" , 
"TOTAL_DIST" : "41851" 
} ,
{
"BUSSTOP_ENG_NM" : "Ihyeon-dong Village Information Center" , 
"BUSSTOP_NM" : "이현동마을정보센터" , 
"BUSSTOP_SEQ" : "57" , 
"BUSSTOP_TP" : " " , 
"BUS_NODE_ID" : "8002479" , 
"BUS_STOP_ID" : "52560" , 
"GPS_LATI" : 36.411682, 
"GPS_LONG" : 127.46269, 
"ROAD_NM" : " " , 
"ROAD_NM_ADDR" : " " , 
"ROUTE_CD" : "30300118" , 
"TOTAL_DIST" : "42419" 
} ,
{
"BUSSTOP_ENG_NM" : "Ihyeon-dong" , 
"BUSSTOP_NM" : "이현동" , 
"BUSSTOP_SEQ" : "58" , 
"BUSSTOP_TP" : " " , 
"BUS_NODE_ID" : "8002474" , 
"BUS_STOP_ID" : "52590" , 
"GPS_LATI" : 36.412, 
"GPS_LONG" : 127.467384, 
"ROAD_NM" : " " , 
"ROAD_NM_ADDR" : " " , 
"ROUTE_CD" : "30300118" , 
"TOTAL_DIST" : "42963" 
} ,
{
"BUSSTOP_ENG_NM" : "Hyopyeong-samgeori " , 
"BUSSTOP_NM" : "효평삼거리" , 
"BUSSTOP_SEQ" : "59" , 
"BUSSTOP_TP" : " " , 
"BUS_NODE_ID" : "9003027" , 
"BUS_STOP_ID" : "12950" , 
"GPS_LATI" : 36.409588, 
"GPS_LONG" : 127.47391, 
"ROAD_NM" : " " , 
"ROAD_NM_ADDR" : " " , 
"ROUTE_CD" : "30300118" , 
"TOTAL_DIST" : "44513" 
} ,
{
"BUSSTOP_ENG_NM" : "Jik-dong Terminal" , 
"BUSSTOP_NM" : "직동종점" , 
"BUSSTOP_SEQ" : "60" , 
"BUSSTOP_TP" : " " , 
"BUS_NODE_ID" : "8002665" , 
"BUS_STOP_ID" : "12960" , 
"GPS_LATI" : 36.41759, 
"GPS_LONG" : 127.479034, 
"ROAD_NM" : " " , 
"ROAD_NM_ADDR" : " " , 
"ROUTE_CD" : "30300118" , 
"TOTAL_DIST" : "45573" 
} ,
{
"BUSSTOP_ENG_NM" : "Jik-dong " , 
"BUSSTOP_NM" : "직동종점" , 
"BUSSTOP_SEQ" : "61" , 
"BUSSTOP_TP" : " " , 
"BUS_NODE_ID" : "9002665" , 
"BUS_STOP_ID" : "12960" , 
"GPS_LATI" : 36.41642, 
"GPS_LONG" : 127.47764, 
"ROAD_NM" : " " , 
"ROAD_NM_ADDR" : " " , 
"ROUTE_CD" : "30300118" , 
"TOTAL_DIST" : "45756" 
} ,
{
"BUSSTOP_ENG_NM" : "Hyopyeong Samgeori(Intersection)" , 
"BUSSTOP_NM" : "효평삼거리" , 
"BUSSTOP_SEQ" : "62" , 
"BUSSTOP_TP" : " " , 
"BUS_NODE_ID" : "8003028" , 
"BUS_STOP_ID" : "12940" , 
"GPS_LATI" : 36.40928, 
"GPS_LONG" : 127.473564, 
"ROAD_NM" : " " , 
"ROAD_NM_ADDR" : " " , 
"ROUTE_CD" : "30300118" , 
"TOTAL_DIST" : "46666" 
} ,
{
"BUSSTOP_ENG_NM" : "Hyopyeong Elementary School" , 
"BUSSTOP_NM" : "효평마루" , 
"BUSSTOP_SEQ" : "63" , 
"BUSSTOP_TP" : " " , 
"BUS_NODE_ID" : "8003031" , 
"BUS_STOP_ID" : "12920" , 
"GPS_LATI" : 36.406376, 
"GPS_LONG" : 127.473434, 
"ROAD_NM" : " " , 
"ROAD_NM_ADDR" : " " , 
"ROUTE_CD" : "30300118" , 
"TOTAL_DIST" : "46991" 
} ,
{
"BUSSTOP_ENG_NM" : "Hyopyeong-dong" , 
"BUSSTOP_NM" : "효평동" , 
"BUSSTOP_SEQ" : "64" , 
"BUSSTOP_TP" : " " , 
"BUS_NODE_ID" : "8003025" , 
"BUS_STOP_ID" : "12900" , 
"GPS_LATI" : 36.39886, 
"GPS_LONG" : 127.46813, 
"ROAD_NM" : " " , 
"ROAD_NM_ADDR" : " " , 
"ROUTE_CD" : "30300118" , 
"TOTAL_DIST" : "47987" 
} ,
{
"BUSSTOP_ENG_NM" : "---" , 
"BUSSTOP_NM" : "효평고개소공원" , 
"BUSSTOP_SEQ" : "65" , 
"BUSSTOP_TP" : " " , 
"BUS_NODE_ID" : "8007180" , 
"BUS_STOP_ID" : "14470" , 
"GPS_LATI" : 36.392544, 
"GPS_LONG" : 127.475815, 
"ROAD_NM" : " " , 
"ROAD_NM_ADDR" : " " , 
"ROUTE_CD" : "30300118" , 
"TOTAL_DIST" : "49487" 
} ,
{
"BUSSTOP_ENG_NM" : "Wonmasan" , 
"BUSSTOP_NM" : "원마산" , 
"BUSSTOP_SEQ" : "66" , 
"BUSSTOP_TP" : " " , 
"BUS_NODE_ID" : "8002360" , 
"BUS_STOP_ID" : "12870" , 
"GPS_LATI" : 36.38655, 
"GPS_LONG" : 127.48071, 
"ROAD_NM" : " " , 
"ROAD_NM_ADDR" : " " , 
"ROUTE_CD" : "30300118" , 
"TOTAL_DIST" : "50650" 
} ,
{
"BUSSTOP_ENG_NM" : "Masan /Jindeungnal" , 
"BUSSTOP_NM" : "마산/진등날" , 
"BUSSTOP_SEQ" : "67" , 
"BUSSTOP_TP" : " " , 
"BUS_NODE_ID" : "8001592" , 
"BUS_STOP_ID" : "12840" , 
"GPS_LATI" : 36.383434, 
"GPS_LONG" : 127.47952, 
"ROAD_NM" : "비룡로" , 
"ROAD_NM_ADDR" : " " , 
"ROUTE_CD" : "30300118" , 
"TOTAL_DIST" : "51025" 
} ,
{
"BUSSTOP_ENG_NM" : "Masan B Zone" , 
"BUSSTOP_NM" : "마산B지구" , 
"BUSSTOP_SEQ" : "68" , 
"BUSSTOP_TP" : " " , 
"BUS_NODE_ID" : "8001594" , 
"BUS_STOP_ID" : "12620" , 
"GPS_LATI" : 36.37909, 
"GPS_LONG" : 127.47783, 
"ROAD_NM" : "비룡로" , 
"ROAD_NM_ADDR" : " " , 
"ROUTE_CD" : "30300118" , 
"TOTAL_DIST" : "51557" 
} ,
{
"BUSSTOP_ENG_NM" : "Jungchu maeul / Garaeul" , 
"BUSSTOP_NM" : "중추마을/가래울" , 
"BUSSTOP_SEQ" : "69" , 
"BUSSTOP_TP" : " " , 
"BUS_NODE_ID" : "8002657" , 
"BUS_STOP_ID" : "12550" , 
"GPS_LATI" : 36.375797, 
"GPS_LONG" : 127.475426, 
"ROAD_NM" : " " , 
"ROAD_NM_ADDR" : " " , 
"ROUTE_CD" : "30300118" , 
"TOTAL_DIST" : "51981" 
} ,
{
"BUSSTOP_ENG_NM" : "Dongmyeong Elementary School" , 
"BUSSTOP_NM" : "동명초등학교" , 
"BUSSTOP_SEQ" : "70" , 
"BUSSTOP_TP" : " " , 
"BUS_NODE_ID" : "8001519" , 
"BUS_STOP_ID" : "12570" , 
"GPS_LATI" : 36.372963, 
"GPS_LONG" : 127.47547, 
"ROAD_NM" : "비룡로" , 
"ROAD_NM_ADDR" : " " , 
"ROUTE_CD" : "30300118" , 
"TOTAL_DIST" : "52316" 
} ,
{
"BUSSTOP_ENG_NM" : "Chu-dong Water Plant" , 
"BUSSTOP_NM" : "추동취수장" , 
"BUSSTOP_SEQ" : "71" , 
"BUSSTOP_TP" : " " , 
"BUS_NODE_ID" : "8002715" , 
"BUS_STOP_ID" : "12600" , 
"GPS_LATI" : 36.370747, 
"GPS_LONG" : 127.475746, 
"ROAD_NM" : " " , 
"ROAD_NM_ADDR" : " " , 
"ROUTE_CD" : "30300118" , 
"TOTAL_DIST" : "52569" 
} ,
{
"BUSSTOP_ENG_NM" : "Chu-dong" , 
"BUSSTOP_NM" : "추동" , 
"BUSSTOP_SEQ" : "72" , 
"BUSSTOP_TP" : " " , 
"BUS_NODE_ID" : "8002710" , 
"BUS_STOP_ID" : "12760" , 
"GPS_LATI" : 36.364178, 
"GPS_LONG" : 127.47642, 
"ROAD_NM" : " " , 
"ROAD_NM_ADDR" : " " , 
"ROUTE_CD" : "30300118" , 
"TOTAL_DIST" : "53329" 
} ,
{
"BUSSTOP_ENG_NM" : "Wonjusan/Yangjimal" , 
"BUSSTOP_NM" : "원주산.양지말" , 
"BUSSTOP_SEQ" : "73" , 
"BUSSTOP_TP" : " " , 
"BUS_NODE_ID" : "8002370" , 
"BUS_STOP_ID" : "12820" , 
"GPS_LATI" : 36.36071, 
"GPS_LONG" : 127.48027, 
"ROAD_NM" : " " , 
"ROAD_NM_ADDR" : " " , 
"ROUTE_CD" : "30300118" , 
"TOTAL_DIST" : "53850" 
} ,
{
"BUSSTOP_ENG_NM" : "Jusan-dong/ Sangchon" , 
"BUSSTOP_NM" : "주산동/상촌" , 
"BUSSTOP_SEQ" : "74" , 
"BUSSTOP_TP" : " " , 
"BUS_NODE_ID" : "8002588" , 
"BUS_STOP_ID" : "12800" , 
"GPS_LATI" : 36.356647, 
"GPS_LONG" : 127.47798, 
"ROAD_NM" : " " , 
"ROAD_NM_ADDR" : " " , 
"ROUTE_CD" : "30300118" , 
"TOTAL_DIST" : "54508" 
} ,
{
"BUSSTOP_ENG_NM" : "Geumseong Village" , 
"BUSSTOP_NM" : "금성마을" , 
"BUSSTOP_SEQ" : "75" , 
"BUSSTOP_TP" : " " , 
"BUS_NODE_ID" : "8001222" , 
"BUS_STOP_ID" : "12780" , 
"GPS_LATI" : 36.353745, 
"GPS_LONG" : 127.47744, 
"ROAD_NM" : "비룡로" , 
"ROAD_NM_ADDR" : " " , 
"ROUTE_CD" : "30300118" , 
"TOTAL_DIST" : "54926" 
} ,
{
"BUSSTOP_ENG_NM" : "Biryong/Bireumdeul" , 
"BUSSTOP_NM" : "비룡교차로" , 
"BUSSTOP_SEQ" : "76" , 
"BUSSTOP_TP" : " " , 
"BUS_NODE_ID" : "8001805" , 
"BUS_STOP_ID" : "12640" , 
"GPS_LATI" : 36.348557, 
"GPS_LONG" : 127.473434, 
"ROAD_NM" : "비룡로" , 
"ROAD_NM_ADDR" : " " , 
"ROUTE_CD" : "30300118" , 
"TOTAL_DIST" : "55853" 
} ,
{
"BUSSTOP_ENG_NM" : "Biryong / Saedongne" , 
"BUSSTOP_NM" : "비룡/새동네" , 
"BUSSTOP_SEQ" : "77" , 
"BUSSTOP_TP" : " " , 
"BUS_NODE_ID" : "8001807" , 
"BUS_STOP_ID" : "12700" , 
"GPS_LATI" : 36.343853, 
"GPS_LONG" : 127.47778, 
"ROAD_NM" : "비룡로" , 
"ROAD_NM_ADDR" : " " , 
"ROUTE_CD" : "30300118" , 
"TOTAL_DIST" : "56602" 
} ,
{
"BUSSTOP_ENG_NM" : "Biryong/Julgol" , 
"BUSSTOP_NM" : "비룡/줄골" , 
"BUSSTOP_SEQ" : "78" , 
"BUSSTOP_TP" : " " , 
"BUS_NODE_ID" : "8001809" , 
"BUS_STOP_ID" : "12710" , 
"GPS_LATI" : 36.338375, 
"GPS_LONG" : 127.47777, 
"ROAD_NM" : "비룡로" , 
"ROAD_NM_ADDR" : " " , 
"ROUTE_CD" : "30300118" , 
"TOTAL_DIST" : "57243" 
} ,
{
"BUSSTOP_ENG_NM" : "Dongsin-High School" , 
"BUSSTOP_NM" : "대전동신과학고" , 
"BUSSTOP_SEQ" : "79" , 
"BUSSTOP_TP" : "3" , 
"BUS_NODE_ID" : "8006000" , 
"BUS_STOP_ID" : "12670" , 
"GPS_LATI" : 36.33222, 
"GPS_LONG" : 127.476906, 
"ROAD_NM" : " " , 
"ROAD_NM_ADDR" : " " , 
"ROUTE_CD" : "30300118" , 
"TOTAL_DIST" : "57993" 
} ,
{
"BUSSTOP_ENG_NM" : "Yongho-dong Terminal" , 
"BUSSTOP_NM" : "용호동종점" , 
"BUSSTOP_SEQ" : "1" , 
"BUSSTOP_TP" : "1" , 
"BUS_NODE_ID" : "9002327" , 
"BUS_STOP_ID" : "52980" , 
"GPS_LATI" : 36.437256, 
"GPS_LONG" : 127.4481, 
"ROAD_NM" : " " , 
"ROAD_NM_ADDR" : " " , 
"ROUTE_CD" : "30300119" , 
"TOTAL_DIST" : "192" 
} ,
{
"BUSSTOP_ENG_NM" : "Sintanjin Filtration Plant" , 
"BUSSTOP_NM" : "신탄진정수장" , 
"BUSSTOP_SEQ" : "2" , 
"BUSSTOP_TP" : " " , 
"BUS_NODE_ID" : "8005980" , 
"BUS_STOP_ID" : "53140" , 
"GPS_LATI" : 36.44294, 
"GPS_LONG" : 127.44115, 
"ROAD_NM" : " " , 
"ROAD_NM_ADDR" : " " , 
"ROUTE_CD" : "30300119" , 
"TOTAL_DIST" : "1143" 
} ,
{
"BUSSTOP_ENG_NM" : "Hanil Transport Corporation" , 
"BUSSTOP_NM" : "신탄진26통" , 
"BUSSTOP_SEQ" : "3" , 
"BUSSTOP_TP" : " " , 
"BUS_NODE_ID" : "8002958" , 
"BUS_STOP_ID" : "52880" , 
"GPS_LATI" : 36.44401, 
"GPS_LONG" : 127.43361, 
"ROAD_NM" : " " , 
"ROAD_NM_ADDR" : " " , 
"ROUTE_CD" : "30300119" , 
"TOTAL_DIST" : "1906" 
} ,
{
"BUSSTOP_ENG_NM" : "Namgyeong Village" , 
"BUSSTOP_NM" : "남경마을" , 
"BUSSTOP_SEQ" : "4" , 
"BUSSTOP_TP" : " " , 
"BUS_NODE_ID" : "8001242" , 
"BUS_STOP_ID" : "52830" , 
"GPS_LATI" : 36.444923, 
"GPS_LONG" : 127.42969, 
"ROAD_NM" : "신탄진로" , 
"ROAD_NM_ADDR" : " " , 
"ROUTE_CD" : "30300119" , 
"TOTAL_DIST" : "2318" 
} ,
{
"BUSSTOP_ENG_NM" : "Sintanjin Station" , 
"BUSSTOP_NM" : "신탄진역" , 
"BUSSTOP_SEQ" : "5" , 
"BUSSTOP_TP" : " " , 
"BUS_NODE_ID" : "8002134" , 
"BUS_STOP_ID" : "52810" , 
"GPS_LATI" : 36.449253, 
"GPS_LONG" : 127.42927, 
"ROAD_NM" : "신탄진로" , 
"ROAD_NM_ADDR" : " " , 
"ROUTE_CD" : "30300119" , 
"TOTAL_DIST" : "2764" 
} ,
{
"BUSSTOP_ENG_NM" : "Sintanjin-dong Community Center" , 
"BUSSTOP_NM" : "신탄진동행정복지센터" , 
"BUSSTOP_SEQ" : "6" , 
"BUSSTOP_TP" : " " , 
"BUS_NODE_ID" : "8002130" , 
"BUS_STOP_ID" : "52840" , 
"GPS_LATI" : 36.45146, 
"GPS_LONG" : 127.430374, 
"ROAD_NM" : "대청로" , 
"ROAD_NM_ADDR" : " " , 
"ROUTE_CD" : "30300119" , 
"TOTAL_DIST" : "3118" 
} ,
{
"BUSSTOP_ENG_NM" : "Yongjeong Elementary School" , 
"BUSSTOP_NM" : "용정초등학교" , 
"BUSSTOP_SEQ" : "7" , 
"BUSSTOP_TP" : " " , 
"BUS_NODE_ID" : "8002319" , 
"BUS_STOP_ID" : "52950" , 
"GPS_LATI" : 36.453426, 
"GPS_LONG" : 127.43602, 
"ROAD_NM" : " " , 
"ROAD_NM_ADDR" : " " , 
"ROUTE_CD" : "30300119" , 
"TOTAL_DIST" : "3669" 
} ,
{
"BUSSTOP_ENG_NM" : "Sintanjin Water Plant" , 
"BUSSTOP_NM" : "금강로하스타워" , 
"BUSSTOP_SEQ" : "8" , 
"BUSSTOP_TP" : " " , 
"BUS_NODE_ID" : "8002135" , 
"BUS_STOP_ID" : "53000" , 
"GPS_LATI" : 36.448536, 
"GPS_LONG" : 127.44346, 
"ROAD_NM" : "대청로" , 
"ROAD_NM_ADDR" : " " , 
"ROUTE_CD" : "30300119" , 
"TOTAL_DIST" : "4652" 
} ,
{
"BUSSTOP_ENG_NM" : "Daecheong Auxiliary Dam" , 
"BUSSTOP_NM" : "보조댐" , 
"BUSSTOP_SEQ" : "9" , 
"BUSSTOP_TP" : " " , 
"BUS_NODE_ID" : "8001751" , 
"BUS_STOP_ID" : "52530" , 
"GPS_LATI" : 36.448708, 
"GPS_LONG" : 127.452324, 
"ROAD_NM" : "대청로" , 
"ROAD_NM_ADDR" : " " , 
"ROUTE_CD" : "30300119" , 
"TOTAL_DIST" : "5462" 
} ,
{
"BUSSTOP_ENG_NM" : "Seokbong Filtration Plant" , 
"BUSSTOP_NM" : "삼정취수장" , 
"BUSSTOP_SEQ" : "10" , 
"BUSSTOP_TP" : " " , 
"BUS_NODE_ID" : "8001966" , 
"BUS_STOP_ID" : "52650" , 
"GPS_LATI" : 36.449356, 
"GPS_LONG" : 127.45637, 
"ROAD_NM" : "대청로" , 
"ROAD_NM_ADDR" : " " , 
"ROUTE_CD" : "30300119" , 
"TOTAL_DIST" : "5846" 
} ,
{
"BUSSTOP_ENG_NM" : "Samjeong-dong / Geumjanggol-gil" , 
"BUSSTOP_NM" : "삼정동.근장골길" , 
"BUSSTOP_SEQ" : "11" , 
"BUSSTOP_TP" : " " , 
"BUS_NODE_ID" : "8001883" , 
"BUS_STOP_ID" : "52680" , 
"GPS_LATI" : 36.447323, 
"GPS_LONG" : 127.46533, 
"ROAD_NM" : "대청호수로" , 
"ROAD_NM_ADDR" : " " , 
"ROUTE_CD" : "30300119" , 
"TOTAL_DIST" : "6733" 
} ,
{
"BUSSTOP_ENG_NM" : "Samjeong-dong / Sogol Village" , 
"BUSSTOP_NM" : "삼정동.소골마을" , 
"BUSSTOP_SEQ" : "12" , 
"BUSSTOP_TP" : " " , 
"BUS_NODE_ID" : "8001888" , 
"BUS_STOP_ID" : "52700" , 
"GPS_LATI" : 36.44264, 
"GPS_LONG" : 127.46657, 
"ROAD_NM" : "대청호수로" , 
"ROAD_NM_ADDR" : " " , 
"ROUTE_CD" : "30300119" , 
"TOTAL_DIST" : "7372" 
} ,
{
"BUSSTOP_ENG_NM" : "Samjeong-dong" , 
"BUSSTOP_NM" : "삼정동" , 
"BUSSTOP_SEQ" : "13" , 
"BUSSTOP_TP" : " " , 
"BUS_NODE_ID" : "8001882" , 
"BUS_STOP_ID" : "52670" , 
"GPS_LATI" : 36.43782, 
"GPS_LONG" : 127.463066, 
"ROAD_NM" : "옥천로" , 
"ROAD_NM_ADDR" : " " , 
"ROUTE_CD" : "30300119" , 
"TOTAL_DIST" : "8122" 
} ,
{
"BUSSTOP_ENG_NM" : "Samjeong-dong / Farm Machine Warehouse" , 
"BUSSTOP_NM" : "갈전동.아래갈밭" , 
"BUSSTOP_SEQ" : "14" , 
"BUSSTOP_TP" : " " , 
"BUS_NODE_ID" : "8001886" , 
"BUS_STOP_ID" : "52620" , 
"GPS_LATI" : 36.43113, 
"GPS_LONG" : 127.46784, 
"ROAD_NM" : "대청호수로" , 
"ROAD_NM_ADDR" : " " , 
"ROUTE_CD" : "30300119" , 
"TOTAL_DIST" : "10043" 
} ,
{
"BUSSTOP_ENG_NM" : "Galjeon-dong" , 
"BUSSTOP_NM" : "갈전동" , 
"BUSSTOP_SEQ" : "15" , 
"BUSSTOP_TP" : " " , 
"BUS_NODE_ID" : "8001067" , 
"BUS_STOP_ID" : "52600" , 
"GPS_LATI" : 36.42773, 
"GPS_LONG" : 127.465805, 
"ROAD_NM" : "비룡로" , 
"ROAD_NM_ADDR" : " " , 
"ROUTE_CD" : "30300119" , 
"TOTAL_DIST" : "10525" 
} ,
{
"BUSSTOP_ENG_NM" : "Ihyeon-dong" , 
"BUSSTOP_NM" : "이현동" , 
"BUSSTOP_SEQ" : "16" , 
"BUSSTOP_TP" : " " , 
"BUS_NODE_ID" : "8002477" , 
"BUS_STOP_ID" : "52540" , 
"GPS_LATI" : 36.414913, 
"GPS_LONG" : 127.45786, 
"ROAD_NM" : " " , 
"ROAD_NM_ADDR" : " " , 
"ROUTE_CD" : "30300119" , 
"TOTAL_DIST" : "12222" 
} ,
{
"BUSSTOP_ENG_NM" : "Ihyeon-dong Village Information Center" , 
"BUSSTOP_NM" : "이현동마을정보센터" , 
"BUSSTOP_SEQ" : "17" , 
"BUSSTOP_TP" : " " , 
"BUS_NODE_ID" : "8002479" , 
"BUS_STOP_ID" : "52560" , 
"GPS_LATI" : 36.411682, 
"GPS_LONG" : 127.46269, 
"ROAD_NM" : " " , 
"ROAD_NM_ADDR" : " " , 
"ROUTE_CD" : "30300119" , 
"TOTAL_DIST" : "12790" 
} ,
{
"BUSSTOP_ENG_NM" : "Ihyeon-dong" , 
"BUSSTOP_NM" : "이현동" , 
"BUSSTOP_SEQ" : "18" , 
"BUSSTOP_TP" : " " , 
"BUS_NODE_ID" : "8002474" , 
"BUS_STOP_ID" : "52590" , 
"GPS_LATI" : 36.412, 
"GPS_LONG" : 127.467384, 
"ROAD_NM" : " " , 
"ROAD_NM_ADDR" : " " , 
"ROUTE_CD" : "30300119" , 
"TOTAL_DIST" : "13334" 
} ,
{
"BUSSTOP_ENG_NM" : "Hyopyeong-samgeori " , 
"BUSSTOP_NM" : "효평삼거리" , 
"BUSSTOP_SEQ" : "19" , 
"BUSSTOP_TP" : " " , 
"BUS_NODE_ID" : "9003027" , 
"BUS_STOP_ID" : "12950" , 
"GPS_LATI" : 36.409588, 
"GPS_LONG" : 127.47391, 
"ROAD_NM" : " " , 
"ROAD_NM_ADDR" : " " , 
"ROUTE_CD" : "30300119" , 
"TOTAL_DIST" : "14884" 
} ,
{
"BUSSTOP_ENG_NM" : "Jik-dong Terminal" , 
"BUSSTOP_NM" : "직동종점" , 
"BUSSTOP_SEQ" : "20" , 
"BUSSTOP_TP" : " " , 
"BUS_NODE_ID" : "8002665" , 
"BUS_STOP_ID" : "12960" , 
"GPS_LATI" : 36.41759, 
"GPS_LONG" : 127.479034, 
"ROAD_NM" : " " , 
"ROAD_NM_ADDR" : " " , 
"ROUTE_CD" : "30300119" , 
"TOTAL_DIST" : "15944" 
} ,
{
"BUSSTOP_ENG_NM" : "Jik-dong " , 
"BUSSTOP_NM" : "직동종점" , 
"BUSSTOP_SEQ" : "21" , 
"BUSSTOP_TP" : "2" , 
"BUS_NODE_ID" : "9002665" , 
"BUS_STOP_ID" : "12960" , 
"GPS_LATI" : 36.41642, 
"GPS_LONG" : 127.47764, 
"ROAD_NM" : " " , 
"ROAD_NM_ADDR" : " " , 
"ROUTE_CD" : "30300119" , 
"TOTAL_DIST" : "16127" 
} ,
{
"BUSSTOP_ENG_NM" : "Hyopyeong-samgeori " , 
"BUSSTOP_NM" : "효평삼거리" , 
"BUSSTOP_SEQ" : "22" , 
"BUSSTOP_TP" : " " , 
"BUS_NODE_ID" : "9003028" , 
"BUS_STOP_ID" : "12940" , 
"GPS_LATI" : 36.409664, 
"GPS_LONG" : 127.47388, 
"ROAD_NM" : " " , 
"ROAD_NM_ADDR" : " " , 
"ROUTE_CD" : "30300119" , 
"TOTAL_DIST" : "16985" 
} ,
{
"BUSSTOP_ENG_NM" : "Ihyeon-dong" , 
"BUSSTOP_NM" : "이현동" , 
"BUSSTOP_SEQ" : "23" , 
"BUSSTOP_TP" : " " , 
"BUS_NODE_ID" : "8002475" , 
"BUS_STOP_ID" : "52570" , 
"GPS_LATI" : 36.41203, 
"GPS_LONG" : 127.46724, 
"ROAD_NM" : " " , 
"ROAD_NM_ADDR" : " " , 
"ROUTE_CD" : "30300119" , 
"TOTAL_DIST" : "18558" 
} ,
{
"BUSSTOP_ENG_NM" : "Ihyeon-dong Village Information Center" , 
"BUSSTOP_NM" : "이현동마을정보센터" , 
"BUSSTOP_SEQ" : "24" , 
"BUSSTOP_TP" : " " , 
"BUS_NODE_ID" : "8002478" , 
"BUS_STOP_ID" : "52570" , 
"GPS_LATI" : 36.41138, 
"GPS_LONG" : 127.46309, 
"ROAD_NM" : " " , 
"ROAD_NM_ADDR" : " " , 
"ROUTE_CD" : "30300119" , 
"TOTAL_DIST" : "19039" 
} ,
{
"BUSSTOP_ENG_NM" : "Ihyeon-dong" , 
"BUSSTOP_NM" : "이현동" , 
"BUSSTOP_SEQ" : "25" , 
"BUSSTOP_TP" : " " , 
"BUS_NODE_ID" : "8002476" , 
"BUS_STOP_ID" : "52550" , 
"GPS_LATI" : 36.414997, 
"GPS_LONG" : 127.457924, 
"ROAD_NM" : " " , 
"ROAD_NM_ADDR" : " " , 
"ROUTE_CD" : "30300119" , 
"TOTAL_DIST" : "19657" 
} ,
{
"BUSSTOP_ENG_NM" : "Galjeon-dong" , 
"BUSSTOP_NM" : "갈전동" , 
"BUSSTOP_SEQ" : "26" , 
"BUSSTOP_TP" : " " , 
"BUS_NODE_ID" : "8001066" , 
"BUS_STOP_ID" : "52610" , 
"GPS_LATI" : 36.427624, 
"GPS_LONG" : 127.465836, 
"ROAD_NM" : "비룡로" , 
"ROAD_NM_ADDR" : " " , 
"ROUTE_CD" : "30300119" , 
"TOTAL_DIST" : "21334" 
} ,
{
"BUSSTOP_ENG_NM" : "Samjeong-dong / Farm Machine Warehouse" , 
"BUSSTOP_NM" : "갈전동.아래갈밭" , 
"BUSSTOP_SEQ" : "27" , 
"BUSSTOP_TP" : " " , 
"BUS_NODE_ID" : "8001885" , 
"BUS_STOP_ID" : "52630" , 
"GPS_LATI" : 36.431103, 
"GPS_LONG" : 127.46795, 
"ROAD_NM" : "대청호수로" , 
"ROAD_NM_ADDR" : " " , 
"ROUTE_CD" : "30300119" , 
"TOTAL_DIST" : "21825" 
} ,
{
"BUSSTOP_ENG_NM" : "Samjeong-dong" , 
"BUSSTOP_NM" : "삼정동" , 
"BUSSTOP_SEQ" : "28" , 
"BUSSTOP_TP" : " " , 
"BUS_NODE_ID" : "8001881" , 
"BUS_STOP_ID" : "52660" , 
"GPS_LATI" : 36.43775, 
"GPS_LONG" : 127.463135, 
"ROAD_NM" : "옥천로" , 
"ROAD_NM_ADDR" : " " , 
"ROUTE_CD" : "30300119" , 
"TOTAL_DIST" : "23741" 
} ,
{
"BUSSTOP_ENG_NM" : "Samjeong-dong / Sogol Village" , 
"BUSSTOP_NM" : "삼정동.소골마을" , 
"BUSSTOP_SEQ" : "29" , 
"BUSSTOP_TP" : " " , 
"BUS_NODE_ID" : "8001887" , 
"BUS_STOP_ID" : "52710" , 
"GPS_LATI" : 36.442608, 
"GPS_LONG" : 127.46668, 
"ROAD_NM" : "대청호수로" , 
"ROAD_NM_ADDR" : " " , 
"ROUTE_CD" : "30300119" , 
"TOTAL_DIST" : "24493" 
} ,
{
"BUSSTOP_ENG_NM" : "Samjeong-dong / Geumjanggol-gil" , 
"BUSSTOP_NM" : "삼정동.근장골길" , 
"BUSSTOP_SEQ" : "30" , 
"BUSSTOP_TP" : " " , 
"BUS_NODE_ID" : "8001884" , 
"BUS_STOP_ID" : "52690" , 
"GPS_LATI" : 36.44739, 
"GPS_LONG" : 127.46538, 
"ROAD_NM" : "대청호수로" , 
"ROAD_NM_ADDR" : " " , 
"ROUTE_CD" : "30300119" , 
"TOTAL_DIST" : "25144" 
} ,
{
"BUSSTOP_ENG_NM" : "Seokbong Filtration Plant" , 
"BUSSTOP_NM" : "삼정취수장" , 
"BUSSTOP_SEQ" : "31" , 
"BUSSTOP_TP" : " " , 
"BUS_NODE_ID" : "8001967" , 
"BUS_STOP_ID" : "52640" , 
"GPS_LATI" : 36.449474, 
"GPS_LONG" : 127.45641, 
"ROAD_NM" : "대청로" , 
"ROAD_NM_ADDR" : " " , 
"ROUTE_CD" : "30300119" , 
"TOTAL_DIST" : "26027" 
} ,
{
"BUSSTOP_ENG_NM" : "Daecheong Auxiliary Dam" , 
"BUSSTOP_NM" : "보조댐" , 
"BUSSTOP_SEQ" : "32" , 
"BUSSTOP_TP" : " " , 
"BUS_NODE_ID" : "8001752" , 
"BUS_STOP_ID" : "52520" , 
"GPS_LATI" : 36.448803, 
"GPS_LONG" : 127.45228, 
"ROAD_NM" : "대청로" , 
"ROAD_NM_ADDR" : " " , 
"ROUTE_CD" : "30300119" , 
"TOTAL_DIST" : "26421" 
} ,
{
"BUSSTOP_ENG_NM" : "Sintanjin Water Plant" , 
"BUSSTOP_NM" : "금강로하스타워" , 
"BUSSTOP_SEQ" : "33" , 
"BUSSTOP_TP" : " " , 
"BUS_NODE_ID" : "8002136" , 
"BUS_STOP_ID" : "52990" , 
"GPS_LATI" : 36.4489, 
"GPS_LONG" : 127.44465, 
"ROAD_NM" : "대청로" , 
"ROAD_NM_ADDR" : " " , 
"ROUTE_CD" : "30300119" , 
"TOTAL_DIST" : "27109" 
} ,
{
"BUSSTOP_ENG_NM" : "Yongjeong Elementary School" , 
"BUSSTOP_NM" : "동일스위트리버스카이" , 
"BUSSTOP_SEQ" : "34" , 
"BUSSTOP_TP" : " " , 
"BUS_NODE_ID" : "8002320" , 
"BUS_STOP_ID" : "52960" , 
"GPS_LATI" : 36.452747, 
"GPS_LONG" : 127.43391, 
"ROAD_NM" : " " , 
"ROAD_NM_ADDR" : " " , 
"ROUTE_CD" : "30300119" , 
"TOTAL_DIST" : "28417" 
} ,
{
"BUSSTOP_ENG_NM" : "Sintanjin-dong Community Center" , 
"BUSSTOP_NM" : "신탄진동행정복지센터" , 
"BUSSTOP_SEQ" : "35" , 
"BUSSTOP_TP" : " " , 
"BUS_NODE_ID" : "8002959" , 
"BUS_STOP_ID" : "52860" , 
"GPS_LATI" : 36.451668, 
"GPS_LONG" : 127.430664, 
"ROAD_NM" : " " , 
"ROAD_NM_ADDR" : " " , 
"ROUTE_CD" : "30300119" , 
"TOTAL_DIST" : "28732" 
} ,
{
"BUSSTOP_ENG_NM" : "Sintanjin Station" , 
"BUSSTOP_NM" : "신탄진역" , 
"BUSSTOP_SEQ" : "36" , 
"BUSSTOP_TP" : " " , 
"BUS_NODE_ID" : "8002133" , 
"BUS_STOP_ID" : "52790" , 
"GPS_LATI" : 36.449863, 
"GPS_LONG" : 127.428955, 
"ROAD_NM" : "신탄진로" , 
"ROAD_NM_ADDR" : " " , 
"ROUTE_CD" : "30300119" , 
"TOTAL_DIST" : "29044" 
} ,
{
"BUSSTOP_ENG_NM" : "Namgyeong Village" , 
"BUSSTOP_NM" : "남경마을" , 
"BUSSTOP_SEQ" : "37" , 
"BUSSTOP_TP" : " " , 
"BUS_NODE_ID" : "8001241" , 
"BUS_STOP_ID" : "51720" , 
"GPS_LATI" : 36.44464, 
"GPS_LONG" : 127.42941, 
"ROAD_NM" : "신탄진로" , 
"ROAD_NM_ADDR" : " " , 
"ROUTE_CD" : "30300119" , 
"TOTAL_DIST" : "29631" 
} ,
{
"BUSSTOP_ENG_NM" : "Sintanjin Gantry" , 
"BUSSTOP_NM" : "신탄진과선교" , 
"BUSSTOP_SEQ" : "38" , 
"BUSSTOP_TP" : " " , 
"BUS_NODE_ID" : "8002129" , 
"BUS_STOP_ID" : "52820" , 
"GPS_LATI" : 36.44258, 
"GPS_LONG" : 127.42957, 
"ROAD_NM" : "대청로" , 
"ROAD_NM_ADDR" : " " , 
"ROUTE_CD" : "30300119" , 
"TOTAL_DIST" : "30493" 
} ,
{
"BUSSTOP_ENG_NM" : "Hanil Transport Corporation" , 
"BUSSTOP_NM" : "신탄진26통" , 
"BUSSTOP_SEQ" : "39" , 
"BUSSTOP_TP" : " " , 
"BUS_NODE_ID" : "8002957" , 
"BUS_STOP_ID" : "52890" , 
"GPS_LATI" : 36.443947, 
"GPS_LONG" : 127.43371, 
"ROAD_NM" : " " , 
"ROAD_NM_ADDR" : " " , 
"ROUTE_CD" : "30300119" , 
"TOTAL_DIST" : "31219" 
} ,
{
"BUSSTOP_ENG_NM" : "Sintanjin Filtration Plant" , 
"BUSSTOP_NM" : "신탄진정수장" , 
"BUSSTOP_SEQ" : "40" , 
"BUSSTOP_TP" : " " , 
"BUS_NODE_ID" : "8005981" , 
"BUS_STOP_ID" : "53300" , 
"GPS_LATI" : 36.442837, 
"GPS_LONG" : 127.44108, 
"ROAD_NM" : " " , 
"ROAD_NM_ADDR" : " " , 
"ROUTE_CD" : "30300119" , 
"TOTAL_DIST" : "31972" 
} ,
{
"BUSSTOP_ENG_NM" : "Yongho-dong Terminal" , 
"BUSSTOP_NM" : "용호동종점" , 
"BUSSTOP_SEQ" : "41" , 
"BUSSTOP_TP" : "3" , 
"BUS_NODE_ID" : "8002327" , 
"BUS_STOP_ID" : "52980" , 
"GPS_LATI" : 36.436035, 
"GPS_LONG" : 127.44899, 
"ROAD_NM" : " " , 
"ROAD_NM_ADDR" : " " , 
"ROUTE_CD" : "30300119" , 
"TOTAL_DIST" : "33094" 
} ,
{
"BUSSTOP_ENG_NM" : "Daljeon-ri" , 
"BUSSTOP_NM" : "달전리" , 
"BUSSTOP_SEQ" : "1" , 
"BUSSTOP_TP" : "1" , 
"BUS_NODE_ID" : "8005096" , 
"BUS_STOP_ID" : "75430" , 
"GPS_LATI" : 36.461998, 
"GPS_LONG" : 127.34915, 
"ROAD_NM" : " " , 
"ROAD_NM_ADDR" : " " , 
"ROUTE_CD" : "30300120" , 
"TOTAL_DIST" : "233" 
} ,
{
"BUSSTOP_ENG_NM" : "---" , 
"BUSSTOP_NM" : "둔곡3교" , 
"BUSSTOP_SEQ" : "2" , 
"BUSSTOP_TP" : " " , 
"BUS_NODE_ID" : "8001564" , 
"BUS_STOP_ID" : "45130" , 
"GPS_LATI" : 36.45724, 
"GPS_LONG" : 127.35988, 
"ROAD_NM" : " " , 
"ROAD_NM_ADDR" : " " , 
"ROUTE_CD" : "30300120" , 
"TOTAL_DIST" : "1644" 
} ,
{
"BUSSTOP_ENG_NM" : "Dungok-dong" , 
"BUSSTOP_NM" : "둔곡동" , 
"BUSSTOP_SEQ" : "3" , 
"BUSSTOP_TP" : " " , 
"BUS_NODE_ID" : "8001562" , 
"BUS_STOP_ID" : "45150" , 
"GPS_LATI" : 36.45287, 
"GPS_LONG" : 127.35893, 
"ROAD_NM" : "구룡달전로" , 
"ROAD_NM_ADDR" : " " , 
"ROUTE_CD" : "30300120" , 
"TOTAL_DIST" : "2134" 
} ,
{
"BUSSTOP_ENG_NM" : "---" , 
"BUSSTOP_NM" : "서한이다음2단지" , 
"BUSSTOP_SEQ" : "4" , 
"BUSSTOP_TP" : " " , 
"BUS_NODE_ID" : "8001150" , 
"BUS_STOP_ID" : "45170" , 
"GPS_LATI" : 36.45175, 
"GPS_LONG" : 127.36182, 
"ROAD_NM" : " " , 
"ROAD_NM_ADDR" : " " , 
"ROUTE_CD" : "30300120" , 
"TOTAL_DIST" : "2465" 
} ,
{
"BUSSTOP_ENG_NM" : "Guryong 2(e)-tong" , 
"BUSSTOP_NM" : "구룡2통" , 
"BUSSTOP_SEQ" : "5" , 
"BUSSTOP_TP" : " " , 
"BUS_NODE_ID" : "8001149" , 
"BUS_STOP_ID" : "45200" , 
"GPS_LATI" : 36.44708, 
"GPS_LONG" : 127.36545, 
"ROAD_NM" : "구룡달전로" , 
"ROAD_NM_ADDR" : " " , 
"ROUTE_CD" : "30300120" , 
"TOTAL_DIST" : "3159" 
} ,
{
"BUSSTOP_ENG_NM" : "Guryong" , 
"BUSSTOP_NM" : "구룡" , 
"BUSSTOP_SEQ" : "6" , 
"BUSSTOP_TP" : " " , 
"BUS_NODE_ID" : "8001146" , 
"BUS_STOP_ID" : "45210" , 
"GPS_LATI" : 36.44605, 
"GPS_LONG" : 127.36842, 
"ROAD_NM" : "구룡달전로" , 
"ROAD_NM_ADDR" : " " , 
"ROUTE_CD" : "30300120" , 
"TOTAL_DIST" : "3463" 
} ,
{
"BUSSTOP_ENG_NM" : "Songgang Middle School" , 
"BUSSTOP_NM" : "송강중학교" , 
"BUSSTOP_SEQ" : "7" , 
"BUSSTOP_TP" : " " , 
"BUS_NODE_ID" : "8070003" , 
"BUS_STOP_ID" : "45600" , 
"GPS_LATI" : 36.43789, 
"GPS_LONG" : 127.38274, 
"ROAD_NM" : " " , 
"ROAD_NM_ADDR" : " " , 
"ROUTE_CD" : "30300120" , 
"TOTAL_DIST" : "5142" 
} ,
{
"BUSSTOP_ENG_NM" : "Gujeuk-dong" , 
"BUSSTOP_NM" : "송강마을아파트" , 
"BUSSTOP_SEQ" : "8" , 
"BUSSTOP_TP" : " " , 
"BUS_NODE_ID" : "8001178" , 
"BUS_STOP_ID" : "44790" , 
"GPS_LATI" : 36.437572, 
"GPS_LONG" : 127.38576, 
"ROAD_NM" : "봉산로" , 
"ROAD_NM_ADDR" : " " , 
"ROUTE_CD" : "30300120" , 
"TOTAL_DIST" : "5444" 
} ,
{
"BUSSTOP_ENG_NM" : "Songgang Shopping Center" , 
"BUSSTOP_NM" : "송강전통시장" , 
"BUSSTOP_SEQ" : "9" , 
"BUSSTOP_TP" : " " , 
"BUS_NODE_ID" : "8002048" , 
"BUS_STOP_ID" : "44830" , 
"GPS_LATI" : 36.43543, 
"GPS_LONG" : 127.38708, 
"ROAD_NM" : "봉산로" , 
"ROAD_NM_ADDR" : " " , 
"ROUTE_CD" : "30300120" , 
"TOTAL_DIST" : "5708" 
} ,
{
"BUSSTOP_ENG_NM" : "Korea Gas Technology Corporation" , 
"BUSSTOP_NM" : "한국가스기술공사" , 
"BUSSTOP_SEQ" : "10" , 
"BUSSTOP_TP" : " " , 
"BUS_NODE_ID" : "8070001" , 
"BUS_STOP_ID" : "45580" , 
"GPS_LATI" : 36.434776, 
"GPS_LONG" : 127.38992, 
"ROAD_NM" : " " , 
"ROAD_NM_ADDR" : " " , 
"ROUTE_CD" : "30300120" , 
"TOTAL_DIST" : "6050" 
} ,
{
"BUSSTOP_ENG_NM" : "Singugyo(Bridge)" , 
"BUSSTOP_NM" : "신구교" , 
"BUSSTOP_SEQ" : "11" , 
"BUSSTOP_TP" : " " , 
"BUS_NODE_ID" : "8002091" , 
"BUS_STOP_ID" : "51820" , 
"GPS_LATI" : 36.4389, 
"GPS_LONG" : 127.39572, 
"ROAD_NM" : "대덕대로" , 
"ROAD_NM_ADDR" : " " , 
"ROUTE_CD" : "30300120" , 
"TOTAL_DIST" : "6743" 
} ,
{
"BUSSTOP_ENG_NM" : "Kiheung Machinery" , 
"BUSSTOP_NM" : "기흥기계" , 
"BUSSTOP_SEQ" : "12" , 
"BUSSTOP_TP" : " " , 
"BUS_NODE_ID" : "8001230" , 
"BUS_STOP_ID" : "51830" , 
"GPS_LATI" : 36.44141, 
"GPS_LONG" : 127.400116, 
"ROAD_NM" : "대덕대로" , 
"ROAD_NM_ADDR" : " " , 
"ROUTE_CD" : "30300120" , 
"TOTAL_DIST" : "7228" 
} ,
{
"BUSSTOP_ENG_NM" : "Hyosung Sintanjin Factory" , 
"BUSSTOP_NM" : "효성신탄진공장" , 
"BUSSTOP_SEQ" : "13" , 
"BUSSTOP_TP" : " " , 
"BUS_NODE_ID" : "8003020" , 
"BUS_STOP_ID" : "51860" , 
"GPS_LATI" : 36.444374, 
"GPS_LONG" : 127.40408, 
"ROAD_NM" : " " , 
"ROAD_NM_ADDR" : " " , 
"ROUTE_CD" : "30300120" , 
"TOTAL_DIST" : "7711" 
} ,
{
"BUSSTOP_ENG_NM" : "Korea Transportation Safety Authority" , 
"BUSSTOP_NM" : "한국교통안전공단" , 
"BUSSTOP_SEQ" : "14" , 
"BUSSTOP_TP" : " " , 
"BUS_NODE_ID" : "8001309" , 
"BUS_STOP_ID" : "51930" , 
"GPS_LATI" : 36.446476, 
"GPS_LONG" : 127.40726, 
"ROAD_NM" : "대덕대로" , 
"ROAD_NM_ADDR" : " " , 
"ROUTE_CD" : "30300120" , 
"TOTAL_DIST" : "8082" 
} ,
{
"BUSSTOP_ENG_NM" : "Hankook Tire" , 
"BUSSTOP_NM" : "한국타이어" , 
"BUSSTOP_SEQ" : "15" , 
"BUSSTOP_TP" : " " , 
"BUS_NODE_ID" : "8002889" , 
"BUS_STOP_ID" : "51730" , 
"GPS_LATI" : 36.448162, 
"GPS_LONG" : 127.4104, 
"ROAD_NM" : " " , 
"ROAD_NM_ADDR" : " " , 
"ROUTE_CD" : "30300120" , 
"TOTAL_DIST" : "8420" 
} ,
{
"BUSSTOP_ENG_NM" : "Moksang-dong Community Center" , 
"BUSSTOP_NM" : "목상동주민센터" , 
"BUSSTOP_SEQ" : "16" , 
"BUSSTOP_TP" : " " , 
"BUS_NODE_ID" : "8001632" , 
"BUS_STOP_ID" : "51750" , 
"GPS_LATI" : 36.44893, 
"GPS_LONG" : 127.41211, 
"ROAD_NM" : "대덕대로" , 
"ROAD_NM_ADDR" : " " , 
"ROUTE_CD" : "30300120" , 
"TOTAL_DIST" : "8597" 
} ,
{
"BUSSTOP_ENG_NM" : "Hankook Tire Back Gate" , 
"BUSSTOP_NM" : "한국타이어후문" , 
"BUSSTOP_SEQ" : "17" , 
"BUSSTOP_TP" : " " , 
"BUS_NODE_ID" : "8002891" , 
"BUS_STOP_ID" : "51760" , 
"GPS_LATI" : 36.449112, 
"GPS_LONG" : 127.417076, 
"ROAD_NM" : " " , 
"ROAD_NM_ADDR" : " " , 
"ROUTE_CD" : "30300120" , 
"TOTAL_DIST" : "9072" 
} ,
{
"BUSSTOP_ENG_NM" : "Moksang Samgeori(Intersection)" , 
"BUSSTOP_NM" : "석봉네거리" , 
"BUSSTOP_SEQ" : "18" , 
"BUSSTOP_TP" : " " , 
"BUS_NODE_ID" : "8001633" , 
"BUS_STOP_ID" : "52040" , 
"GPS_LATI" : 36.44826, 
"GPS_LONG" : 127.41989, 
"ROAD_NM" : "덕암북로" , 
"ROAD_NM_ADDR" : " " , 
"ROUTE_CD" : "30300120" , 
"TOTAL_DIST" : "9370" 
} ,
{
"BUSSTOP_ENG_NM" : "Daejeon Imun High School" , 
"BUSSTOP_NM" : "대전이문고" , 
"BUSSTOP_SEQ" : "19" , 
"BUSSTOP_TP" : " " , 
"BUS_NODE_ID" : "8001423" , 
"BUS_STOP_ID" : "52060" , 
"GPS_LATI" : 36.446476, 
"GPS_LONG" : 127.42207, 
"ROAD_NM" : "덕암북로" , 
"ROAD_NM_ADDR" : " " , 
"ROUTE_CD" : "30300120" , 
"TOTAL_DIST" : "9661" 
} ,
{
"BUSSTOP_ENG_NM" : "Deogam-dong" , 
"BUSSTOP_NM" : "덕암동" , 
"BUSSTOP_SEQ" : "20" , 
"BUSSTOP_TP" : " " , 
"BUS_NODE_ID" : "8001475" , 
"BUS_STOP_ID" : "52090" , 
"GPS_LATI" : 36.445084, 
"GPS_LONG" : 127.42397, 
"ROAD_NM" : "덕암북로" , 
"ROAD_NM_ADDR" : " " , 
"ROUTE_CD" : "30300120" , 
"TOTAL_DIST" : "9892" 
} ,
{
"BUSSTOP_ENG_NM" : "Daedeok-gu Health Center" , 
"BUSSTOP_NM" : "대덕구보건소" , 
"BUSSTOP_SEQ" : "21" , 
"BUSSTOP_TP" : " " , 
"BUS_NODE_ID" : "8001314" , 
"BUS_STOP_ID" : "52120" , 
"GPS_LATI" : 36.44348, 
"GPS_LONG" : 127.42536, 
"ROAD_NM" : "덕암로" , 
"ROAD_NM_ADDR" : " " , 
"ROUTE_CD" : "30300120" , 
"TOTAL_DIST" : "10167" 
} ,
{
"BUSSTOP_ENG_NM" : "Sintanjin I.C." , 
"BUSSTOP_NM" : "신탄중앙중학교" , 
"BUSSTOP_SEQ" : "22" , 
"BUSSTOP_TP" : " " , 
"BUS_NODE_ID" : "8002137" , 
"BUS_STOP_ID" : "52100" , 
"GPS_LATI" : 36.441025, 
"GPS_LONG" : 127.42425, 
"ROAD_NM" : "덕암로" , 
"ROAD_NM_ADDR" : " " , 
"ROUTE_CD" : "30300120" , 
"TOTAL_DIST" : "10457" 
} ,
{
"BUSSTOP_ENG_NM" : "Namgyeong Village" , 
"BUSSTOP_NM" : "남경마을" , 
"BUSSTOP_SEQ" : "23" , 
"BUSSTOP_TP" : " " , 
"BUS_NODE_ID" : "8001242" , 
"BUS_STOP_ID" : "52830" , 
"GPS_LATI" : 36.444923, 
"GPS_LONG" : 127.42969, 
"ROAD_NM" : "신탄진로" , 
"ROAD_NM_ADDR" : " " , 
"ROUTE_CD" : "30300120" , 
"TOTAL_DIST" : "11718" 
} ,
{
"BUSSTOP_ENG_NM" : "Sintanjin Station" , 
"BUSSTOP_NM" : "신탄진역" , 
"BUSSTOP_SEQ" : "24" , 
"BUSSTOP_TP" : " " , 
"BUS_NODE_ID" : "8002134" , 
"BUS_STOP_ID" : "52810" , 
"GPS_LATI" : 36.449253, 
"GPS_LONG" : 127.42927, 
"ROAD_NM" : "신탄진로" , 
"ROAD_NM_ADDR" : " " , 
"ROUTE_CD" : "30300120" , 
"TOTAL_DIST" : "12202" 
} ,
{
"BUSSTOP_ENG_NM" : "Sintanjin-dong Community Center" , 
"BUSSTOP_NM" : "신탄진동행정복지센터" , 
"BUSSTOP_SEQ" : "25" , 
"BUSSTOP_TP" : " " , 
"BUS_NODE_ID" : "8002130" , 
"BUS_STOP_ID" : "52840" , 
"GPS_LATI" : 36.45146, 
"GPS_LONG" : 127.430374, 
"ROAD_NM" : "대청로" , 
"ROAD_NM_ADDR" : " " , 
"ROUTE_CD" : "30300120" , 
"TOTAL_DIST" : "12556" 
} ,
{
"BUSSTOP_ENG_NM" : "Yongjeong Elementary School" , 
"BUSSTOP_NM" : "용정초등학교" , 
"BUSSTOP_SEQ" : "26" , 
"BUSSTOP_TP" : " " , 
"BUS_NODE_ID" : "8002319" , 
"BUS_STOP_ID" : "52950" , 
"GPS_LATI" : 36.453426, 
"GPS_LONG" : 127.43602, 
"ROAD_NM" : " " , 
"ROAD_NM_ADDR" : " " , 
"ROUTE_CD" : "30300120" , 
"TOTAL_DIST" : "13107" 
} ,
{
"BUSSTOP_ENG_NM" : "Sintanjin Water Plant" , 
"BUSSTOP_NM" : "금강로하스타워" , 
"BUSSTOP_SEQ" : "27" , 
"BUSSTOP_TP" : " " , 
"BUS_NODE_ID" : "8002135" , 
"BUS_STOP_ID" : "53000" , 
"GPS_LATI" : 36.448536, 
"GPS_LONG" : 127.44346, 
"ROAD_NM" : "대청로" , 
"ROAD_NM_ADDR" : " " , 
"ROUTE_CD" : "30300120" , 
"TOTAL_DIST" : "14090" 
} ,
{
"BUSSTOP_ENG_NM" : "Daecheong Auxiliary Dam" , 
"BUSSTOP_NM" : "보조댐" , 
"BUSSTOP_SEQ" : "28" , 
"BUSSTOP_TP" : " " , 
"BUS_NODE_ID" : "8001751" , 
"BUS_STOP_ID" : "52530" , 
"GPS_LATI" : 36.448708, 
"GPS_LONG" : 127.452324, 
"ROAD_NM" : "대청로" , 
"ROAD_NM_ADDR" : " " , 
"ROUTE_CD" : "30300120" , 
"TOTAL_DIST" : "14900" 
} ,
{
"BUSSTOP_ENG_NM" : "Seokbong Filtration Plant" , 
"BUSSTOP_NM" : "삼정취수장" , 
"BUSSTOP_SEQ" : "29" , 
"BUSSTOP_TP" : " " , 
"BUS_NODE_ID" : "8001966" , 
"BUS_STOP_ID" : "52650" , 
"GPS_LATI" : 36.449356, 
"GPS_LONG" : 127.45637, 
"ROAD_NM" : "대청로" , 
"ROAD_NM_ADDR" : " " , 
"ROUTE_CD" : "30300120" , 
"TOTAL_DIST" : "15284" 
} ,
{
"BUSSTOP_ENG_NM" : "Samjeong-dong / Geumjanggol-gil" , 
"BUSSTOP_NM" : "삼정동.근장골길" , 
"BUSSTOP_SEQ" : "30" , 
"BUSSTOP_TP" : " " , 
"BUS_NODE_ID" : "8001883" , 
"BUS_STOP_ID" : "52680" , 
"GPS_LATI" : 36.447323, 
"GPS_LONG" : 127.46533, 
"ROAD_NM" : "대청호수로" , 
"ROAD_NM_ADDR" : " " , 
"ROUTE_CD" : "30300120" , 
"TOTAL_DIST" : "16171" 
} ,
{
"BUSSTOP_ENG_NM" : "---" , 
"BUSSTOP_NM" : "삼정마을회관" , 
"BUSSTOP_SEQ" : "31" , 
"BUSSTOP_TP" : " " , 
"BUS_NODE_ID" : "8007547" , 
"BUS_STOP_ID" : "53580" , 
"GPS_LATI" : 36.449738, 
"GPS_LONG" : 127.46647, 
"ROAD_NM" : " " , 
"ROAD_NM_ADDR" : " " , 
"ROUTE_CD" : "30300120" , 
"TOTAL_DIST" : "16474" 
} ,
{
"BUSSTOP_ENG_NM" : "---" , 
"BUSSTOP_NM" : "로하스캠핑장" , 
"BUSSTOP_SEQ" : "32" , 
"BUSSTOP_TP" : " " , 
"BUS_NODE_ID" : "8007545" , 
"BUS_STOP_ID" : "53560" , 
"GPS_LATI" : 36.45522, 
"GPS_LONG" : 127.475845, 
"ROAD_NM" : " " , 
"ROAD_NM_ADDR" : " " , 
"ROUTE_CD" : "30300120" , 
"TOTAL_DIST" : "17736" 
} ,
{
"BUSSTOP_ENG_NM" : "Miho-dong" , 
"BUSSTOP_NM" : "숯골" , 
"BUSSTOP_SEQ" : "33" , 
"BUSSTOP_TP" : " " , 
"BUS_NODE_ID" : "8001672" , 
"BUS_STOP_ID" : "52750" , 
"GPS_LATI" : 36.46492, 
"GPS_LONG" : 127.46737, 
"ROAD_NM" : "대청로" , 
"ROAD_NM_ADDR" : " " , 
"ROUTE_CD" : "30300120" , 
"TOTAL_DIST" : "19709" 
} ,
{
"BUSSTOP_ENG_NM" : "Sutgol" , 
"BUSSTOP_NM" : "벌말" , 
"BUSSTOP_SEQ" : "34" , 
"BUSSTOP_TP" : " " , 
"BUS_NODE_ID" : "8002078" , 
"BUS_STOP_ID" : "52770" , 
"GPS_LATI" : 36.46685, 
"GPS_LONG" : 127.469284, 
"ROAD_NM" : "벌곡로" , 
"ROAD_NM_ADDR" : " " , 
"ROUTE_CD" : "30300120" , 
"TOTAL_DIST" : "19942" 
} ,
{
"BUSSTOP_ENG_NM" : "Daecheong Dam" , 
"BUSSTOP_NM" : "안골" , 
"BUSSTOP_SEQ" : "35" , 
"BUSSTOP_TP" : " " , 
"BUS_NODE_ID" : "8005882" , 
"BUS_STOP_ID" : "53180" , 
"GPS_LATI" : 36.46996, 
"GPS_LONG" : 127.47207, 
"ROAD_NM" : " " , 
"ROAD_NM_ADDR" : " " , 
"ROUTE_CD" : "30300120" , 
"TOTAL_DIST" : "20417" 
} ,
{
"BUSSTOP_ENG_NM" : "Geumgang LOHAS Daecheong Park" , 
"BUSSTOP_NM" : "금강로하스대청공원" , 
"BUSSTOP_SEQ" : "36" , 
"BUSSTOP_TP" : " " , 
"BUS_NODE_ID" : "8007008" , 
"BUS_STOP_ID" : "53190" , 
"GPS_LATI" : 36.47248, 
"GPS_LONG" : 127.47627, 
"ROAD_NM" : " " , 
"ROAD_NM_ADDR" : " " , 
"ROUTE_CD" : "30300120" , 
"TOTAL_DIST" : "20900" 
} ,
{
"BUSSTOP_ENG_NM" : "Daecheong Dam Terminal" , 
"BUSSTOP_NM" : "대청댐(종점)" , 
"BUSSTOP_SEQ" : "37" , 
"BUSSTOP_TP" : "2" , 
"BUS_NODE_ID" : "8005631" , 
"BUS_STOP_ID" : "53210" , 
"GPS_LATI" : 36.4753, 
"GPS_LONG" : 127.48042, 
"ROAD_NM" : " " , 
"ROAD_NM_ADDR" : " " , 
"ROUTE_CD" : "30300120" , 
"TOTAL_DIST" : "21424" 
} ,
{
"BUSSTOP_ENG_NM" : "Geumgang LOHAS Daecheong Park" , 
"BUSSTOP_NM" : "금강로하스대청공원" , 
"BUSSTOP_SEQ" : "38" , 
"BUSSTOP_TP" : " " , 
"BUS_NODE_ID" : "8007009" , 
"BUS_STOP_ID" : "53200" , 
"GPS_LATI" : 36.47197, 
"GPS_LONG" : 127.47523, 
"ROAD_NM" : " " , 
"ROAD_NM_ADDR" : " " , 
"ROUTE_CD" : "30300120" , 
"TOTAL_DIST" : "22255" 
} ,
{
"BUSSTOP_ENG_NM" : "Daecheong Dam" , 
"BUSSTOP_NM" : "대청댐" , 
"BUSSTOP_SEQ" : "39" , 
"BUSSTOP_TP" : " " , 
"BUS_NODE_ID" : "8001446" , 
"BUS_STOP_ID" : "52780" , 
"GPS_LATI" : 36.470657, 
"GPS_LONG" : 127.472755, 
"ROAD_NM" : "대청로" , 
"ROAD_NM_ADDR" : " " , 
"ROUTE_CD" : "30300120" , 
"TOTAL_DIST" : "22523" 
} ,
{
"BUSSTOP_ENG_NM" : "Sutgol" , 
"BUSSTOP_NM" : "벌말" , 
"BUSSTOP_SEQ" : "40" , 
"BUSSTOP_TP" : " " , 
"BUS_NODE_ID" : "8002079" , 
"BUS_STOP_ID" : "52760" , 
"GPS_LATI" : 36.466747, 
"GPS_LONG" : 127.46896, 
"ROAD_NM" : "벌곡로" , 
"ROAD_NM_ADDR" : " " , 
"ROUTE_CD" : "30300120" , 
"TOTAL_DIST" : "23078" 
} ,
{
"BUSSTOP_ENG_NM" : "Miho-dong" , 
"BUSSTOP_NM" : "숯골" , 
"BUSSTOP_SEQ" : "41" , 
"BUSSTOP_TP" : " " , 
"BUS_NODE_ID" : "8001671" , 
"BUS_STOP_ID" : "52740" , 
"GPS_LATI" : 36.4644, 
"GPS_LONG" : 127.46706, 
"ROAD_NM" : "대청로" , 
"ROAD_NM_ADDR" : " " , 
"ROUTE_CD" : "30300120" , 
"TOTAL_DIST" : "23397" 
} ,
{
"BUSSTOP_ENG_NM" : "Army Rest Home" , 
"BUSSTOP_NM" : "미호교" , 
"BUSSTOP_SEQ" : "42" , 
"BUSSTOP_TP" : " " , 
"BUS_NODE_ID" : "8003033" , 
"BUS_STOP_ID" : "52720" , 
"GPS_LATI" : 36.45997, 
"GPS_LONG" : 127.46551, 
"ROAD_NM" : " " , 
"ROAD_NM_ADDR" : " " , 
"ROUTE_CD" : "30300120" , 
"TOTAL_DIST" : "23907" 
} ,
{
"BUSSTOP_ENG_NM" : "---" , 
"BUSSTOP_NM" : "로하스캠핑장" , 
"BUSSTOP_SEQ" : "43" , 
"BUSSTOP_TP" : " " , 
"BUS_NODE_ID" : "8007546" , 
"BUS_STOP_ID" : "53570" , 
"GPS_LATI" : 36.455177, 
"GPS_LONG" : 127.47576, 
"ROAD_NM" : " " , 
"ROAD_NM_ADDR" : " " , 
"ROUTE_CD" : "30300120" , 
"TOTAL_DIST" : "25301" 
} ,
{
"BUSSTOP_ENG_NM" : "---" , 
"BUSSTOP_NM" : "삼정마을회관" , 
"BUSSTOP_SEQ" : "44" , 
"BUSSTOP_TP" : " " , 
"BUS_NODE_ID" : "8007548" , 
"BUS_STOP_ID" : "53590" , 
"GPS_LATI" : 36.449753, 
"GPS_LONG" : 127.46642, 
"ROAD_NM" : " " , 
"ROAD_NM_ADDR" : " " , 
"ROUTE_CD" : "30300120" , 
"TOTAL_DIST" : "26549" 
} ,
{
"BUSSTOP_ENG_NM" : "Samjeong-dong / Geumjanggol-gil" , 
"BUSSTOP_NM" : "삼정동.근장골길" , 
"BUSSTOP_SEQ" : "45" , 
"BUSSTOP_TP" : " " , 
"BUS_NODE_ID" : "8001884" , 
"BUS_STOP_ID" : "52690" , 
"GPS_LATI" : 36.44739, 
"GPS_LONG" : 127.46538, 
"ROAD_NM" : "대청호수로" , 
"ROAD_NM_ADDR" : " " , 
"ROUTE_CD" : "30300120" , 
"TOTAL_DIST" : "26850" 
} ,
{
"BUSSTOP_ENG_NM" : "Seokbong Filtration Plant" , 
"BUSSTOP_NM" : "삼정취수장" , 
"BUSSTOP_SEQ" : "46" , 
"BUSSTOP_TP" : " " , 
"BUS_NODE_ID" : "8001967" , 
"BUS_STOP_ID" : "52640" , 
"GPS_LATI" : 36.449474, 
"GPS_LONG" : 127.45641, 
"ROAD_NM" : "대청로" , 
"ROAD_NM_ADDR" : " " , 
"ROUTE_CD" : "30300120" , 
"TOTAL_DIST" : "27733" 
} ,
{
"BUSSTOP_ENG_NM" : "Daecheong Auxiliary Dam" , 
"BUSSTOP_NM" : "보조댐" , 
"BUSSTOP_SEQ" : "47" , 
"BUSSTOP_TP" : " " , 
"BUS_NODE_ID" : "8001752" , 
"BUS_STOP_ID" : "52520" , 
"GPS_LATI" : 36.448803, 
"GPS_LONG" : 127.45228, 
"ROAD_NM" : "대청로" , 
"ROAD_NM_ADDR" : " " , 
"ROUTE_CD" : "30300120" , 
"TOTAL_DIST" : "28127" 
} ,
{
"BUSSTOP_ENG_NM" : "Sintanjin Water Plant" , 
"BUSSTOP_NM" : "금강로하스타워" , 
"BUSSTOP_SEQ" : "48" , 
"BUSSTOP_TP" : " " , 
"BUS_NODE_ID" : "8002136" , 
"BUS_STOP_ID" : "52990" , 
"GPS_LATI" : 36.4489, 
"GPS_LONG" : 127.44465, 
"ROAD_NM" : "대청로" , 
"ROAD_NM_ADDR" : " " , 
"ROUTE_CD" : "30300120" , 
"TOTAL_DIST" : "28816" 
} ,
{
"BUSSTOP_ENG_NM" : "Yongjeong Elementary School" , 
"BUSSTOP_NM" : "동일스위트리버스카이" , 
"BUSSTOP_SEQ" : "49" , 
"BUSSTOP_TP" : " " , 
"BUS_NODE_ID" : "8002320" , 
"BUS_STOP_ID" : "52960" , 
"GPS_LATI" : 36.452747, 
"GPS_LONG" : 127.43391, 
"ROAD_NM" : " " , 
"ROAD_NM_ADDR" : " " , 
"ROUTE_CD" : "30300120" , 
"TOTAL_DIST" : "30122" 
} ,
{
"BUSSTOP_ENG_NM" : "Sintanjin-dong Community Center" , 
"BUSSTOP_NM" : "신탄진동행정복지센터" , 
"BUSSTOP_SEQ" : "50" , 
"BUSSTOP_TP" : " " , 
"BUS_NODE_ID" : "8002959" , 
"BUS_STOP_ID" : "52860" , 
"GPS_LATI" : 36.451668, 
"GPS_LONG" : 127.430664, 
"ROAD_NM" : " " , 
"ROAD_NM_ADDR" : " " , 
"ROUTE_CD" : "30300120" , 
"TOTAL_DIST" : "30437" 
} ,
{
"BUSSTOP_ENG_NM" : "Sintanjin Station" , 
"BUSSTOP_NM" : "신탄진역" , 
"BUSSTOP_SEQ" : "51" , 
"BUSSTOP_TP" : " " , 
"BUS_NODE_ID" : "8002133" , 
"BUS_STOP_ID" : "52790" , 
"GPS_LATI" : 36.449863, 
"GPS_LONG" : 127.428955, 
"ROAD_NM" : "신탄진로" , 
"ROAD_NM_ADDR" : " " , 
"ROUTE_CD" : "30300120" , 
"TOTAL_DIST" : "30749" 
} ,
{
"BUSSTOP_ENG_NM" : "Namgyeong Village" , 
"BUSSTOP_NM" : "남경마을" , 
"BUSSTOP_SEQ" : "52" , 
"BUSSTOP_TP" : " " , 
"BUS_NODE_ID" : "8001241" , 
"BUS_STOP_ID" : "51720" , 
"GPS_LATI" : 36.44464, 
"GPS_LONG" : 127.42941, 
"ROAD_NM" : "신탄진로" , 
"ROAD_NM_ADDR" : " " , 
"ROUTE_CD" : "30300120" , 
"TOTAL_DIST" : "31336" 
} ,
{
"BUSSTOP_ENG_NM" : "Sintanjin I.C." , 
"BUSSTOP_NM" : "신탄중앙중학교" , 
"BUSSTOP_SEQ" : "53" , 
"BUSSTOP_TP" : " " , 
"BUS_NODE_ID" : "8002138" , 
"BUS_STOP_ID" : "52110" , 
"GPS_LATI" : 36.441338, 
"GPS_LONG" : 127.424545, 
"ROAD_NM" : "덕암로" , 
"ROAD_NM_ADDR" : " " , 
"ROUTE_CD" : "30300120" , 
"TOTAL_DIST" : "32603" 
} ,
{
"BUSSTOP_ENG_NM" : "Daedeok-gu Health Center" , 
"BUSSTOP_NM" : "대덕구보건소" , 
"BUSSTOP_SEQ" : "54" , 
"BUSSTOP_TP" : " " , 
"BUS_NODE_ID" : "8001313" , 
"BUS_STOP_ID" : "52130" , 
"GPS_LATI" : 36.443275, 
"GPS_LONG" : 127.42538, 
"ROAD_NM" : "덕암로" , 
"ROAD_NM_ADDR" : " " , 
"ROUTE_CD" : "30300120" , 
"TOTAL_DIST" : "32831" 
} ,
{
"BUSSTOP_ENG_NM" : "Hanbat Apts." , 
"BUSSTOP_NM" : "한밭아파트" , 
"BUSSTOP_SEQ" : "55" , 
"BUSSTOP_TP" : " " , 
"BUS_NODE_ID" : "8002929" , 
"BUS_STOP_ID" : "51690" , 
"GPS_LATI" : 36.445057, 
"GPS_LONG" : 127.42436, 
"ROAD_NM" : " " , 
"ROAD_NM_ADDR" : " " , 
"ROUTE_CD" : "30300120" , 
"TOTAL_DIST" : "33094" 
} ,
{
"BUSSTOP_ENG_NM" : "Daejeon Imun High School" , 
"BUSSTOP_NM" : "대전이문고" , 
"BUSSTOP_SEQ" : "56" , 
"BUSSTOP_TP" : " " , 
"BUS_NODE_ID" : "8001424" , 
"BUS_STOP_ID" : "52070" , 
"GPS_LATI" : 36.446415, 
"GPS_LONG" : 127.42238, 
"ROAD_NM" : "덕암북로" , 
"ROAD_NM_ADDR" : " " , 
"ROUTE_CD" : "30300120" , 
"TOTAL_DIST" : "33332" 
} ,
{
"BUSSTOP_ENG_NM" : "Moksang Samgeori(Intersection)" , 
"BUSSTOP_NM" : "석봉네거리" , 
"BUSSTOP_SEQ" : "57" , 
"BUSSTOP_TP" : " " , 
"BUS_NODE_ID" : "8001634" , 
"BUS_STOP_ID" : "51670" , 
"GPS_LATI" : 36.448463, 
"GPS_LONG" : 127.41994, 
"ROAD_NM" : "덕암북로" , 
"ROAD_NM_ADDR" : " " , 
"ROUTE_CD" : "30300120" , 
"TOTAL_DIST" : "33656" 
} ,
{
"BUSSTOP_ENG_NM" : "Hankook Tire Back Gate" , 
"BUSSTOP_NM" : "한국타이어후문" , 
"BUSSTOP_SEQ" : "58" , 
"BUSSTOP_TP" : " " , 
"BUS_NODE_ID" : "8002892" , 
"BUS_STOP_ID" : "51770" , 
"GPS_LATI" : 36.449642, 
"GPS_LONG" : 127.416084, 
"ROAD_NM" : " " , 
"ROAD_NM_ADDR" : " " , 
"ROUTE_CD" : "30300120" , 
"TOTAL_DIST" : "34038" 
} ,
{
"BUSSTOP_ENG_NM" : "Moksang-dong Community Center" , 
"BUSSTOP_NM" : "목상동주민센터" , 
"BUSSTOP_SEQ" : "59" , 
"BUSSTOP_TP" : " " , 
"BUS_NODE_ID" : "8001631" , 
"BUS_STOP_ID" : "51740" , 
"GPS_LATI" : 36.44869, 
"GPS_LONG" : 127.41096, 
"ROAD_NM" : "대덕대로" , 
"ROAD_NM_ADDR" : " " , 
"ROUTE_CD" : "30300120" , 
"TOTAL_DIST" : "34522" 
} ,
{
"BUSSTOP_ENG_NM" : "Korea Transportation Safety Authority" , 
"BUSSTOP_NM" : "한국교통안전공단" , 
"BUSSTOP_SEQ" : "60" , 
"BUSSTOP_TP" : " " , 
"BUS_NODE_ID" : "8001310" , 
"BUS_STOP_ID" : "51810" , 
"GPS_LATI" : 36.446312, 
"GPS_LONG" : 127.406334, 
"ROAD_NM" : "대덕대로" , 
"ROAD_NM_ADDR" : " " , 
"ROUTE_CD" : "30300120" , 
"TOTAL_DIST" : "35012" 
} ,
{
"BUSSTOP_ENG_NM" : "Hyosung Sintanjin Factory" , 
"BUSSTOP_NM" : "효성신탄진공장" , 
"BUSSTOP_SEQ" : "61" , 
"BUSSTOP_TP" : " " , 
"BUS_NODE_ID" : "8003021" , 
"BUS_STOP_ID" : "51800" , 
"GPS_LATI" : 36.44466, 
"GPS_LONG" : 127.40384, 
"ROAD_NM" : " " , 
"ROAD_NM_ADDR" : " " , 
"ROUTE_CD" : "30300120" , 
"TOTAL_DIST" : "35298" 
} ,
{
"BUSSTOP_ENG_NM" : "Kiheung Machinery" , 
"BUSSTOP_NM" : "기흥기계" , 
"BUSSTOP_SEQ" : "62" , 
"BUSSTOP_TP" : " " , 
"BUS_NODE_ID" : "8001231" , 
"BUS_STOP_ID" : "51790" , 
"GPS_LATI" : 36.44173, 
"GPS_LONG" : 127.40005, 
"ROAD_NM" : "대덕대로" , 
"ROAD_NM_ADDR" : " " , 
"ROUTE_CD" : "30300120" , 
"TOTAL_DIST" : "35771" 
} ,
{
"BUSSTOP_ENG_NM" : "Singugyo(Bridge)" , 
"BUSSTOP_NM" : "신구교" , 
"BUSSTOP_SEQ" : "63" , 
"BUSSTOP_TP" : " " , 
"BUS_NODE_ID" : "8002092" , 
"BUS_STOP_ID" : "51780" , 
"GPS_LATI" : 36.43963, 
"GPS_LONG" : 127.396385, 
"ROAD_NM" : "대덕대로" , 
"ROAD_NM_ADDR" : " " , 
"ROUTE_CD" : "30300120" , 
"TOTAL_DIST" : "36177" 
} ,
{
"BUSSTOP_ENG_NM" : "Korea Gas Technology Corporation" , 
"BUSSTOP_NM" : "한국가스기술공사" , 
"BUSSTOP_SEQ" : "64" , 
"BUSSTOP_TP" : " " , 
"BUS_NODE_ID" : "8070002" , 
"BUS_STOP_ID" : "45570" , 
"GPS_LATI" : 36.435658, 
"GPS_LONG" : 127.390335, 
"ROAD_NM" : " " , 
"ROAD_NM_ADDR" : " " , 
"ROUTE_CD" : "30300120" , 
"TOTAL_DIST" : "36874" 
} ,
{
"BUSSTOP_ENG_NM" : "Songgang Shopping Center" , 
"BUSSTOP_NM" : "송강전통시장" , 
"BUSSTOP_SEQ" : "65" , 
"BUSSTOP_TP" : " " , 
"BUS_NODE_ID" : "8002049" , 
"BUS_STOP_ID" : "44820" , 
"GPS_LATI" : 36.435654, 
"GPS_LONG" : 127.38718, 
"ROAD_NM" : "봉산로" , 
"ROAD_NM_ADDR" : " " , 
"ROUTE_CD" : "30300120" , 
"TOTAL_DIST" : "37320" 
} ,
{
"BUSSTOP_ENG_NM" : "Gujeuk-dong" , 
"BUSSTOP_NM" : "휴먼시아아파트" , 
"BUSSTOP_SEQ" : "66" , 
"BUSSTOP_TP" : " " , 
"BUS_NODE_ID" : "8001179" , 
"BUS_STOP_ID" : "44770" , 
"GPS_LATI" : 36.438026, 
"GPS_LONG" : 127.385185, 
"ROAD_NM" : "와룡로" , 
"ROAD_NM_ADDR" : " " , 
"ROUTE_CD" : "30300120" , 
"TOTAL_DIST" : "37651" 
} ,
{
"BUSSTOP_ENG_NM" : "Songgang Middle School" , 
"BUSSTOP_NM" : "송강중학교" , 
"BUSSTOP_SEQ" : "67" , 
"BUSSTOP_TP" : " " , 
"BUS_NODE_ID" : "8070004" , 
"BUS_STOP_ID" : "45590" , 
"GPS_LATI" : 36.43804, 
"GPS_LONG" : 127.38177, 
"ROAD_NM" : " " , 
"ROAD_NM_ADDR" : " " , 
"ROUTE_CD" : "30300120" , 
"TOTAL_DIST" : "37958" 
} ,
{
"BUSSTOP_ENG_NM" : "Guryong" , 
"BUSSTOP_NM" : "구룡" , 
"BUSSTOP_SEQ" : "68" , 
"BUSSTOP_TP" : " " , 
"BUS_NODE_ID" : "8001147" , 
"BUS_STOP_ID" : "45220" , 
"GPS_LATI" : 36.446117, 
"GPS_LONG" : 127.36868, 
"ROAD_NM" : "구룡달전로" , 
"ROAD_NM_ADDR" : " " , 
"ROUTE_CD" : "30300120" , 
"TOTAL_DIST" : "39500" 
} ,
{
"BUSSTOP_ENG_NM" : "Guryong 2(e)-tong" , 
"BUSSTOP_NM" : "구룡2통" , 
"BUSSTOP_SEQ" : "69" , 
"BUSSTOP_TP" : " " , 
"BUS_NODE_ID" : "8001148" , 
"BUS_STOP_ID" : "45190" , 
"GPS_LATI" : 36.44728, 
"GPS_LONG" : 127.365364, 
"ROAD_NM" : "구룡달전로" , 
"ROAD_NM_ADDR" : " " , 
"ROUTE_CD" : "30300120" , 
"TOTAL_DIST" : "39845" 
} ,
{
"BUSSTOP_ENG_NM" : "---" , 
"BUSSTOP_NM" : "서한이다음2단지" , 
"BUSSTOP_SEQ" : "70" , 
"BUSSTOP_TP" : " " , 
"BUS_NODE_ID" : "8001151" , 
"BUS_STOP_ID" : "45180" , 
"GPS_LATI" : 36.45185, 
"GPS_LONG" : 127.362, 
"ROAD_NM" : " " , 
"ROAD_NM_ADDR" : " " , 
"ROUTE_CD" : "30300120" , 
"TOTAL_DIST" : "40490" 
} ,
{
"BUSSTOP_ENG_NM" : "Dungok-dong" , 
"BUSSTOP_NM" : "둔곡동" , 
"BUSSTOP_SEQ" : "71" , 
"BUSSTOP_TP" : " " , 
"BUS_NODE_ID" : "8001561" , 
"BUS_STOP_ID" : "45160" , 
"GPS_LATI" : 36.452717, 
"GPS_LONG" : 127.359116, 
"ROAD_NM" : "구룡달전로" , 
"ROAD_NM_ADDR" : " " , 
"ROUTE_CD" : "30300120" , 
"TOTAL_DIST" : "40822" 
} ,
{
"BUSSTOP_ENG_NM" : "---" , 
"BUSSTOP_NM" : "둔곡3교" , 
"BUSSTOP_SEQ" : "72" , 
"BUSSTOP_TP" : " " , 
"BUS_NODE_ID" : "8001563" , 
"BUS_STOP_ID" : "45140" , 
"GPS_LATI" : 36.457397, 
"GPS_LONG" : 127.360085, 
"ROAD_NM" : " " , 
"ROAD_NM_ADDR" : " " , 
"ROUTE_CD" : "30300120" , 
"TOTAL_DIST" : "41347" 
} ,
{
"BUSSTOP_ENG_NM" : "Daljeon-ri" , 
"BUSSTOP_NM" : "달전리" , 
"BUSSTOP_SEQ" : "73" , 
"BUSSTOP_TP" : "3" , 
"BUS_NODE_ID" : "8005096" , 
"BUS_STOP_ID" : "75430" , 
"GPS_LATI" : 36.461998, 
"GPS_LONG" : 127.34915, 
"ROAD_NM" : " " , 
"ROAD_NM_ADDR" : " " , 
"ROUTE_CD" : "30300120" , 
"TOTAL_DIST" : "42740" 
} ,
{
"BUSSTOP_ENG_NM" : "National Cemetery Station" , 
"BUSSTOP_NM" : "현충원역3번출구" , 
"BUSSTOP_SEQ" : "1" , 
"BUSSTOP_TP" : " " , 
"BUS_NODE_ID" : "8002974" , 
"BUS_STOP_ID" : "41450" , 
"GPS_LATI" : 36.359623, 
"GPS_LONG" : 127.319695, 
"ROAD_NM" : " " , 
"ROAD_NM_ADDR" : " " , 
"ROUTE_CD" : "30300126" , 
"TOTAL_DIST" : "954" 
} ,
{
"BUSSTOP_ENG_NM" : "Guam 8(pal)-tong" , 
"BUSSTOP_NM" : "구암8통" , 
"BUSSTOP_SEQ" : "2" , 
"BUSSTOP_TP" : " " , 
"BUS_NODE_ID" : "8001163" , 
"BUS_STOP_ID" : "41430" , 
"GPS_LATI" : 36.35921, 
"GPS_LONG" : 127.313835, 
"ROAD_NM" : "현충원로" , 
"ROAD_NM_ADDR" : " " , 
"ROUTE_CD" : "30300126" , 
"TOTAL_DIST" : "1494" 
} ,
{
"BUSSTOP_ENG_NM" : "Hanbat National University Entrance" , 
"BUSSTOP_NM" : "덕명네거리" , 
"BUSSTOP_SEQ" : "3" , 
"BUSSTOP_TP" : " " , 
"BUS_NODE_ID" : "8002922" , 
"BUS_STOP_ID" : "41410" , 
"GPS_LATI" : 36.35952, 
"GPS_LONG" : 127.30905, 
"ROAD_NM" : " " , 
"ROAD_NM_ADDR" : " " , 
"ROUTE_CD" : "30300126" , 
"TOTAL_DIST" : "2069" 
} ,
{
"BUSSTOP_ENG_NM" : "National Cemetery" , 
"BUSSTOP_NM" : "국립대전현충원" , 
"BUSSTOP_SEQ" : "4" , 
"BUSSTOP_TP" : " " , 
"BUS_NODE_ID" : "8001185" , 
"BUS_STOP_ID" : "41700" , 
"GPS_LATI" : 36.36055, 
"GPS_LONG" : 127.29998, 
"ROAD_NM" : "현충원로" , 
"ROAD_NM_ADDR" : " " , 
"ROUTE_CD" : "30300126" , 
"TOTAL_DIST" : "2779" 
} ,
{
"BUSSTOP_ENG_NM" : "Yuseong C.C" , 
"BUSSTOP_NM" : "유성컨트리클럽" , 
"BUSSTOP_SEQ" : "5" , 
"BUSSTOP_TP" : " " , 
"BUS_NODE_ID" : "8002421" , 
"BUS_STOP_ID" : "42190" , 
"GPS_LATI" : 36.360207, 
"GPS_LONG" : 127.29419, 
"ROAD_NM" : " " , 
"ROAD_NM_ADDR" : " " , 
"ROUTE_CD" : "30300126" , 
"TOTAL_DIST" : "3310" 
} ,
{
"BUSSTOP_ENG_NM" : "Gap-dong" , 
"BUSSTOP_NM" : "갑동" , 
"BUSSTOP_SEQ" : "6" , 
"BUSSTOP_TP" : " " , 
"BUS_NODE_ID" : "8001070" , 
"BUS_STOP_ID" : "42180" , 
"GPS_LATI" : 36.3606, 
"GPS_LONG" : 127.28879, 
"ROAD_NM" : "현충원로" , 
"ROAD_NM_ADDR" : " " , 
"ROUTE_CD" : "30300126" , 
"TOTAL_DIST" : "3808" 
} ,
{
"BUSSTOP_ENG_NM" : "Sabong" , 
"BUSSTOP_NM" : "사봉" , 
"BUSSTOP_SEQ" : "7" , 
"BUSSTOP_TP" : " " , 
"BUS_NODE_ID" : "8005155" , 
"BUS_STOP_ID" : "71110" , 
"GPS_LATI" : 36.36816, 
"GPS_LONG" : 127.265465, 
"ROAD_NM" : " " , 
"ROAD_NM_ADDR" : " " , 
"ROUTE_CD" : "30300126" , 
"TOTAL_DIST" : "6147" 
} ,
{
"BUSSTOP_ENG_NM" : "Bakjeongja Samgeori(Intersection)" , 
"BUSSTOP_NM" : "박정자삼거리" , 
"BUSSTOP_SEQ" : "8" , 
"BUSSTOP_TP" : " " , 
"BUS_NODE_ID" : "8005127" , 
"BUS_STOP_ID" : "71080" , 
"GPS_LATI" : 36.368614, 
"GPS_LONG" : 127.25869, 
"ROAD_NM" : " " , 
"ROAD_NM_ADDR" : " " , 
"ROUTE_CD" : "30300126" , 
"TOTAL_DIST" : "6932" 
} ,
{
"BUSSTOP_ENG_NM" : "Hakbong Samgeori(Intersection)" , 
"BUSSTOP_NM" : "학봉삼거리" , 
"BUSSTOP_SEQ" : "9" , 
"BUSSTOP_TP" : " " , 
"BUS_NODE_ID" : "8005272" , 
"BUS_STOP_ID" : "71070" , 
"GPS_LATI" : 36.36224, 
"GPS_LONG" : 127.252525, 
"ROAD_NM" : " " , 
"ROAD_NM_ADDR" : " " , 
"ROUTE_CD" : "30300126" , 
"TOTAL_DIST" : "8060" 
} ,
{
"BUSSTOP_ENG_NM" : "Hakbong-ri" , 
"BUSSTOP_NM" : "학봉리" , 
"BUSSTOP_SEQ" : "10" , 
"BUSSTOP_TP" : " " , 
"BUS_NODE_ID" : "8005269" , 
"BUS_STOP_ID" : "71050" , 
"GPS_LATI" : 36.360397, 
"GPS_LONG" : 127.24934, 
"ROAD_NM" : " " , 
"ROAD_NM_ADDR" : " " , 
"ROUTE_CD" : "30300126" , 
"TOTAL_DIST" : "8427" 
} ,
{
"BUSSTOP_ENG_NM" : "Donghaksa(Temple) Entrance" , 
"BUSSTOP_NM" : "동학사입구" , 
"BUSSTOP_SEQ" : "11" , 
"BUSSTOP_TP" : " " , 
"BUS_NODE_ID" : "8005106" , 
"BUS_STOP_ID" : "71020" , 
"GPS_LATI" : 36.36007, 
"GPS_LONG" : 127.24383, 
"ROAD_NM" : " " , 
"ROAD_NM_ADDR" : " " , 
"ROUTE_CD" : "30300126" , 
"TOTAL_DIST" : "8926" 
} ,
{
"BUSSTOP_ENG_NM" : "Donghaksa(Temple)" , 
"BUSSTOP_NM" : "동학사" , 
"BUSSTOP_SEQ" : "12" , 
"BUSSTOP_TP" : " " , 
"BUS_NODE_ID" : "8005104" , 
"BUS_STOP_ID" : "71010" , 
"GPS_LATI" : 36.359505, 
"GPS_LONG" : 127.23939, 
"ROAD_NM" : " " , 
"ROAD_NM_ADDR" : " " , 
"ROUTE_CD" : "30300126" , 
"TOTAL_DIST" : "9423" 
} ,
{
"BUSSTOP_ENG_NM" : "Donghaksa(Temple) Entrance" , 
"BUSSTOP_NM" : "동학사입구" , 
"BUSSTOP_SEQ" : "13" , 
"BUSSTOP_TP" : " " , 
"BUS_NODE_ID" : "8005105" , 
"BUS_STOP_ID" : "71030" , 
"GPS_LATI" : 36.360004, 
"GPS_LONG" : 127.244286, 
"ROAD_NM" : " " , 
"ROAD_NM_ADDR" : " " , 
"ROUTE_CD" : "30300126" , 
"TOTAL_DIST" : "9980" 
} ,
{
"BUSSTOP_ENG_NM" : "Hakbong-ri" , 
"BUSSTOP_NM" : "학봉리" , 
"BUSSTOP_SEQ" : "14" , 
"BUSSTOP_TP" : " " , 
"BUS_NODE_ID" : "8005271" , 
"BUS_STOP_ID" : "71040" , 
"GPS_LATI" : 36.360218, 
"GPS_LONG" : 127.24899, 
"ROAD_NM" : " " , 
"ROAD_NM_ADDR" : " " , 
"ROUTE_CD" : "30300126" , 
"TOTAL_DIST" : "10406" 
} ,
{
"BUSSTOP_ENG_NM" : "Hakbong Samgeori(Intersection)" , 
"BUSSTOP_NM" : "학봉삼거리" , 
"BUSSTOP_SEQ" : "15" , 
"BUSSTOP_TP" : " " , 
"BUS_NODE_ID" : "8005270" , 
"BUS_STOP_ID" : "71060" , 
"GPS_LATI" : 36.361843, 
"GPS_LONG" : 127.25234, 
"ROAD_NM" : " " , 
"ROAD_NM_ADDR" : " " , 
"ROUTE_CD" : "30300126" , 
"TOTAL_DIST" : "10771" 
} ,
{
"BUSSTOP_ENG_NM" : "Bakjeongja Samgeori(Intersection)" , 
"BUSSTOP_NM" : "박정자삼거리" , 
"BUSSTOP_SEQ" : "16" , 
"BUSSTOP_TP" : " " , 
"BUS_NODE_ID" : "8005128" , 
"BUS_STOP_ID" : "71090" , 
"GPS_LATI" : 36.368385, 
"GPS_LONG" : 127.25872, 
"ROAD_NM" : " " , 
"ROAD_NM_ADDR" : " " , 
"ROUTE_CD" : "30300126" , 
"TOTAL_DIST" : "12063" 
} ,
{
"BUSSTOP_ENG_NM" : "Sabong" , 
"BUSSTOP_NM" : "사봉" , 
"BUSSTOP_SEQ" : "17" , 
"BUSSTOP_TP" : " " , 
"BUS_NODE_ID" : "8005154" , 
"BUS_STOP_ID" : "71100" , 
"GPS_LATI" : 36.367573, 
"GPS_LONG" : 127.26516, 
"ROAD_NM" : " " , 
"ROAD_NM_ADDR" : " " , 
"ROUTE_CD" : "30300126" , 
"TOTAL_DIST" : "12772" 
} ,
{
"BUSSTOP_ENG_NM" : "Gap-dong" , 
"BUSSTOP_NM" : "갑동" , 
"BUSSTOP_SEQ" : "18" , 
"BUSSTOP_TP" : " " , 
"BUS_NODE_ID" : "8001071" , 
"BUS_STOP_ID" : "42170" , 
"GPS_LATI" : 36.36042, 
"GPS_LONG" : 127.28859, 
"ROAD_NM" : "현충원로" , 
"ROAD_NM_ADDR" : " " , 
"ROUTE_CD" : "30300126" , 
"TOTAL_DIST" : "15045" 
} ,
{
"BUSSTOP_ENG_NM" : "Yuseong C.C" , 
"BUSSTOP_NM" : "유성컨트리클럽" , 
"BUSSTOP_SEQ" : "19" , 
"BUSSTOP_TP" : " " , 
"BUS_NODE_ID" : "8002420" , 
"BUS_STOP_ID" : "42200" , 
"GPS_LATI" : 36.359997, 
"GPS_LONG" : 127.29443, 
"ROAD_NM" : " " , 
"ROAD_NM_ADDR" : " " , 
"ROUTE_CD" : "30300126" , 
"TOTAL_DIST" : "15573" 
} ,
{
"BUSSTOP_ENG_NM" : "National Cemetery" , 
"BUSSTOP_NM" : "국립대전현충원" , 
"BUSSTOP_SEQ" : "20" , 
"BUSSTOP_TP" : " " , 
"BUS_NODE_ID" : "8001184" , 
"BUS_STOP_ID" : "41720" , 
"GPS_LATI" : 36.36036, 
"GPS_LONG" : 127.30081, 
"ROAD_NM" : "현충원로" , 
"ROAD_NM_ADDR" : " " , 
"ROUTE_CD" : "30300126" , 
"TOTAL_DIST" : "16156" 
} ,
{
"BUSSTOP_ENG_NM" : "Hanbat National University Entrance" , 
"BUSSTOP_NM" : "덕명네거리" , 
"BUSSTOP_SEQ" : "21" , 
"BUSSTOP_TP" : " " , 
"BUS_NODE_ID" : "8002923" , 
"BUS_STOP_ID" : "41400" , 
"GPS_LATI" : 36.36027, 
"GPS_LONG" : 127.30627, 
"ROAD_NM" : " " , 
"ROAD_NM_ADDR" : " " , 
"ROUTE_CD" : "30300126" , 
"TOTAL_DIST" : "16657" 
} ,
{
"BUSSTOP_ENG_NM" : "Gas Station" , 
"BUSSTOP_NM" : "주유소" , 
"BUSSTOP_SEQ" : "22" , 
"BUSSTOP_TP" : " " , 
"BUS_NODE_ID" : "8002589" , 
"BUS_STOP_ID" : "41420" , 
"GPS_LATI" : 36.359062, 
"GPS_LONG" : 127.30973, 
"ROAD_NM" : " " , 
"ROAD_NM_ADDR" : " " , 
"ROUTE_CD" : "30300126" , 
"TOTAL_DIST" : "16994" 
} ,
{
"BUSSTOP_ENG_NM" : "Guam 8(pal)-tong" , 
"BUSSTOP_NM" : "구암8통" , 
"BUSSTOP_SEQ" : "23" , 
"BUSSTOP_TP" : " " , 
"BUS_NODE_ID" : "8001162" , 
"BUS_STOP_ID" : "41440" , 
"GPS_LATI" : 36.35907, 
"GPS_LONG" : 127.31484, 
"ROAD_NM" : "현충원로" , 
"ROAD_NM_ADDR" : " " , 
"ROUTE_CD" : "30300126" , 
"TOTAL_DIST" : "17457" 
} ,
{
"BUSSTOP_ENG_NM" : "National Cemetery Station" , 
"BUSSTOP_NM" : "현충원역1번출구" , 
"BUSSTOP_SEQ" : "24" , 
"BUSSTOP_TP" : " " , 
"BUS_NODE_ID" : "8002973" , 
"BUS_STOP_ID" : "41460" , 
"GPS_LATI" : 36.35935, 
"GPS_LONG" : 127.32171, 
"ROAD_NM" : " " , 
"ROAD_NM_ADDR" : " " , 
"ROUTE_CD" : "30300126" , 
"TOTAL_DIST" : "18088" 
} ,
{
"BUSSTOP_ENG_NM" : "Freight Terminal" , 
"BUSSTOP_NM" : "화물터미널" , 
"BUSSTOP_SEQ" : "1" , 
"BUSSTOP_TP" : "1" , 
"BUS_NODE_ID" : "8005978" , 
"BUS_STOP_ID" : "40320" , 
"GPS_LATI" : 36.3184, 
"GPS_LONG" : 127.32007, 
"ROAD_NM" : " " , 
"ROAD_NM_ADDR" : " " , 
"ROUTE_CD" : "30300127" , 
"TOTAL_DIST" : "90" 
} ,
{
"BUSSTOP_ENG_NM" : "Deurium Park" , 
"BUSSTOP_NM" : "한샘근린공원" , 
"BUSSTOP_SEQ" : "2" , 
"BUSSTOP_TP" : " " , 
"BUS_NODE_ID" : "8001577" , 
"BUS_STOP_ID" : "45300" , 
"GPS_LATI" : 36.31537, 
"GPS_LONG" : 127.31984, 
"ROAD_NM" : "대정로" , 
"ROAD_NM_ADDR" : " " , 
"ROUTE_CD" : "30300127" , 
"TOTAL_DIST" : "271" 
} ,
{
"BUSSTOP_ENG_NM" : "Deurium Apts." , 
"BUSSTOP_NM" : "드리움아파트" , 
"BUSSTOP_SEQ" : "3" , 
"BUSSTOP_TP" : " " , 
"BUS_NODE_ID" : "8001580" , 
"BUS_STOP_ID" : "40330" , 
"GPS_LATI" : 36.31222, 
"GPS_LONG" : 127.31981, 
"ROAD_NM" : "대정로" , 
"ROAD_NM_ADDR" : " " , 
"ROUTE_CD" : "30300127" , 
"TOTAL_DIST" : "621" 
} ,
{
"BUSSTOP_ENG_NM" : "Gyochon 3(sam)-tong" , 
"BUSSTOP_NM" : "교촌3통" , 
"BUSSTOP_SEQ" : "4" , 
"BUSSTOP_TP" : " " , 
"BUS_NODE_ID" : "8001141" , 
"BUS_STOP_ID" : "40310" , 
"GPS_LATI" : 36.312122, 
"GPS_LONG" : 127.31857, 
"ROAD_NM" : "대정남로" , 
"ROAD_NM_ADDR" : " " , 
"ROUTE_CD" : "30300127" , 
"TOTAL_DIST" : "746" 
} ,
{
"BUSSTOP_ENG_NM" : "Prison" , 
"BUSSTOP_NM" : "교도소" , 
"BUSSTOP_SEQ" : "5" , 
"BUSSTOP_TP" : " " , 
"BUS_NODE_ID" : "8001136" , 
"BUS_STOP_ID" : "40350" , 
"GPS_LATI" : 36.31144, 
"GPS_LONG" : 127.325195, 
"ROAD_NM" : "한우물로" , 
"ROAD_NM_ADDR" : " " , 
"ROUTE_CD" : "30300127" , 
"TOTAL_DIST" : "1878" 
} ,
{
"BUSSTOP_ENG_NM" : "Prison Entrance" , 
"BUSSTOP_NM" : "교도소입구" , 
"BUSSTOP_SEQ" : "6" , 
"BUSSTOP_TP" : " " , 
"BUS_NODE_ID" : "8001138" , 
"BUS_STOP_ID" : "40240" , 
"GPS_LATI" : 36.308952, 
"GPS_LONG" : 127.31843, 
"ROAD_NM" : "유성대로" , 
"ROAD_NM_ADDR" : " " , 
"ROUTE_CD" : "30300127" , 
"TOTAL_DIST" : "2618" 
} ,
{
"BUSSTOP_ENG_NM" : "HanseungMemade Apts." , 
"BUSSTOP_NM" : "한승미메이드아파트" , 
"BUSSTOP_SEQ" : "7" , 
"BUSSTOP_TP" : " " , 
"BUS_NODE_ID" : "8002948" , 
"BUS_STOP_ID" : "40130" , 
"GPS_LATI" : 36.30684, 
"GPS_LONG" : 127.319336, 
"ROAD_NM" : " " , 
"ROAD_NM_ADDR" : " " , 
"ROUTE_CD" : "30300127" , 
"TOTAL_DIST" : "2867" 
} ,
{
"BUSSTOP_ENG_NM" : "J Park Apts." , 
"BUSSTOP_NM" : "제이파크아파트" , 
"BUSSTOP_SEQ" : "8" , 
"BUSSTOP_TP" : " " , 
"BUS_NODE_ID" : "8002575" , 
"BUS_STOP_ID" : "40090" , 
"GPS_LATI" : 36.30404, 
"GPS_LONG" : 127.319435, 
"ROAD_NM" : " " , 
"ROAD_NM_ADDR" : " " , 
"ROUTE_CD" : "30300127" , 
"TOTAL_DIST" : "3273" 
} ,
{
"BUSSTOP_ENG_NM" : "Gyochon Elementary School" , 
"BUSSTOP_NM" : "진잠향교" , 
"BUSSTOP_SEQ" : "9" , 
"BUSSTOP_TP" : " " , 
"BUS_NODE_ID" : "8002674" , 
"BUS_STOP_ID" : "40040" , 
"GPS_LATI" : 36.30332, 
"GPS_LONG" : 127.31658, 
"ROAD_NM" : " " , 
"ROAD_NM_ADDR" : " " , 
"ROUTE_CD" : "30300127" , 
"TOTAL_DIST" : "3542" 
} ,
{
"BUSSTOP_ENG_NM" : "Jinjam Elementary School" , 
"BUSSTOP_NM" : "진잠초등학교" , 
"BUSSTOP_SEQ" : "10" , 
"BUSSTOP_TP" : " " , 
"BUS_NODE_ID" : "8005584" , 
"BUS_STOP_ID" : "45460" , 
"GPS_LATI" : 36.300694, 
"GPS_LONG" : 127.3153, 
"ROAD_NM" : " " , 
"ROAD_NM_ADDR" : " " , 
"ROUTE_CD" : "30300127" , 
"TOTAL_DIST" : "3888" 
} ,
{
"BUSSTOP_ENG_NM" : "Wonnae-dong" , 
"BUSSTOP_NM" : "원내네거리" , 
"BUSSTOP_SEQ" : "11" , 
"BUSSTOP_TP" : " " , 
"BUS_NODE_ID" : "8002351" , 
"BUS_STOP_ID" : "40120" , 
"GPS_LATI" : 36.29977, 
"GPS_LONG" : 127.31898, 
"ROAD_NM" : " " , 
"ROAD_NM_ADDR" : " " , 
"ROUTE_CD" : "30300127" , 
"TOTAL_DIST" : "4331" 
} ,
{
"BUSSTOP_ENG_NM" : "Saemmultown Apts." , 
"BUSSTOP_NM" : "샘물타운아파트" , 
"BUSSTOP_SEQ" : "12" , 
"BUSSTOP_TP" : " " , 
"BUS_NODE_ID" : "8001915" , 
"BUS_STOP_ID" : "40220" , 
"GPS_LATI" : 36.29973, 
"GPS_LONG" : 127.32204, 
"ROAD_NM" : "원내로" , 
"ROAD_NM_ADDR" : " " , 
"ROUTE_CD" : "30300127" , 
"TOTAL_DIST" : "4607" 
} ,
{
"BUSSTOP_ENG_NM" : "Jinjam Negeori(Intersection)" , 
"BUSSTOP_NM" : "진잠네거리" , 
"BUSSTOP_SEQ" : "13" , 
"BUSSTOP_TP" : " " , 
"BUS_NODE_ID" : "8001218" , 
"BUS_STOP_ID" : "33300" , 
"GPS_LATI" : 36.298157, 
"GPS_LONG" : 127.3243, 
"ROAD_NM" : "구봉로" , 
"ROAD_NM_ADDR" : " " , 
"ROUTE_CD" : "30300127" , 
"TOTAL_DIST" : "4877" 
} ,
{
"BUSSTOP_ENG_NM" : "---" , 
"BUSSTOP_NM" : "서일고/서일여고" , 
"BUSSTOP_SEQ" : "14" , 
"BUSSTOP_TP" : " " , 
"BUS_NODE_ID" : "8007318" , 
"BUS_STOP_ID" : "35280" , 
"GPS_LATI" : 36.295162, 
"GPS_LONG" : 127.32565, 
"ROAD_NM" : " " , 
"ROAD_NM_ADDR" : " " , 
"ROUTE_CD" : "30300127" , 
"TOTAL_DIST" : "5337" 
} ,
{
"BUSSTOP_ENG_NM" : "---" , 
"BUSSTOP_NM" : "관저더샵2단지" , 
"BUSSTOP_SEQ" : "15" , 
"BUSSTOP_TP" : " " , 
"BUS_NODE_ID" : "8007406" , 
"BUS_STOP_ID" : "35560" , 
"GPS_LATI" : 36.293602, 
"GPS_LONG" : 127.32749, 
"ROAD_NM" : " " , 
"ROAD_NM_ADDR" : " " , 
"ROUTE_CD" : "30300127" , 
"TOTAL_DIST" : "5631" 
} ,
{
"BUSSTOP_ENG_NM" : "---" , 
"BUSSTOP_NM" : "관저동예미지아파트" , 
"BUSSTOP_SEQ" : "16" , 
"BUSSTOP_TP" : " " , 
"BUS_NODE_ID" : "8007396" , 
"BUS_STOP_ID" : "35520" , 
"GPS_LATI" : 36.29205, 
"GPS_LONG" : 127.33374, 
"ROAD_NM" : " " , 
"ROAD_NM_ADDR" : " " , 
"ROUTE_CD" : "30300127" , 
"TOTAL_DIST" : "6237" 
} ,
{
"BUSSTOP_ENG_NM" : "---" , 
"BUSSTOP_NM" : "다온숲아파트" , 
"BUSSTOP_SEQ" : "17" , 
"BUSSTOP_TP" : " " , 
"BUS_NODE_ID" : "8007281" , 
"BUS_STOP_ID" : "35210" , 
"GPS_LATI" : 36.292007, 
"GPS_LONG" : 127.33991, 
"ROAD_NM" : " " , 
"ROAD_NM_ADDR" : " " , 
"ROUTE_CD" : "30300127" , 
"TOTAL_DIST" : "6791" 
} ,
{
"BUSSTOP_ENG_NM" : "---" , 
"BUSSTOP_NM" : "천년나무아파트" , 
"BUSSTOP_SEQ" : "18" , 
"BUSSTOP_TP" : " " , 
"BUS_NODE_ID" : "8007283" , 
"BUS_STOP_ID" : "35230" , 
"GPS_LATI" : 36.293964, 
"GPS_LONG" : 127.34372, 
"ROAD_NM" : " " , 
"ROAD_NM_ADDR" : " " , 
"ROUTE_CD" : "30300127" , 
"TOTAL_DIST" : "7243" 
} ,
{
"BUSSTOP_ENG_NM" : "---" , 
"BUSSTOP_NM" : "느리울초등학교" , 
"BUSSTOP_SEQ" : "19" , 
"BUSSTOP_TP" : " " , 
"BUS_NODE_ID" : "8007285" , 
"BUS_STOP_ID" : "35250" , 
"GPS_LATI" : 36.29712, 
"GPS_LONG" : 127.3422, 
"ROAD_NM" : " " , 
"ROAD_NM_ADDR" : " " , 
"ROUTE_CD" : "30300127" , 
"TOTAL_DIST" : "7980" 
} ,
{
"BUSSTOP_ENG_NM" : "Neuriulmaeul Apts.12" , 
"BUSSTOP_NM" : "느리울12단지" , 
"BUSSTOP_SEQ" : "20" , 
"BUSSTOP_TP" : " " , 
"BUS_NODE_ID" : "8001289" , 
"BUS_STOP_ID" : "33610" , 
"GPS_LATI" : 36.298183, 
"GPS_LONG" : 127.340866, 
"ROAD_NM" : "관저동로" , 
"ROAD_NM_ADDR" : " " , 
"ROUTE_CD" : "30300127" , 
"TOTAL_DIST" : "8267" 
} ,
{
"BUSSTOP_ENG_NM" : "Konyang University Hospital Negeori(Intersection)" , 
"BUSSTOP_NM" : "건양대병원네거리" , 
"BUSSTOP_SEQ" : "21" , 
"BUSSTOP_TP" : " " , 
"BUS_NODE_ID" : "8001081" , 
"BUS_STOP_ID" : "33630" , 
"GPS_LATI" : 36.30292, 
"GPS_LONG" : 127.34336, 
"ROAD_NM" : "계백로" , 
"ROAD_NM_ADDR" : " " , 
"ROUTE_CD" : "30300127" , 
"TOTAL_DIST" : "8995" 
} ,
{
"BUSSTOP_ENG_NM" : "Dongbang High School" , 
"BUSSTOP_NM" : "동방고등학교" , 
"BUSSTOP_SEQ" : "22" , 
"BUSSTOP_TP" : " " , 
"BUS_NODE_ID" : "8001525" , 
"BUS_STOP_ID" : "33010" , 
"GPS_LATI" : 36.30348, 
"GPS_LONG" : 127.346924, 
"ROAD_NM" : "계백로" , 
"ROAD_NM_ADDR" : " " , 
"ROUTE_CD" : "30300127" , 
"TOTAL_DIST" : "9320" 
} ,
{
"BUSSTOP_ENG_NM" : "Gasuwon Overpass" , 
"BUSSTOP_NM" : "가수원육교.가수원시장" , 
"BUSSTOP_SEQ" : "23" , 
"BUSSTOP_TP" : " " , 
"BUS_NODE_ID" : "8001029" , 
"BUS_STOP_ID" : "33070" , 
"GPS_LATI" : 36.30447, 
"GPS_LONG" : 127.35135, 
"ROAD_NM" : "계백로" , 
"ROAD_NM_ADDR" : " " , 
"ROUTE_CD" : "30300127" , 
"TOTAL_DIST" : "9732" 
} ,
{
"BUSSTOP_ENG_NM" : "Gasuwon Negeori(Intersection)" , 
"BUSSTOP_NM" : "가수원시장" , 
"BUSSTOP_SEQ" : "24" , 
"BUSSTOP_TP" : " " , 
"BUS_NODE_ID" : "8001011" , 
"BUS_STOP_ID" : "33120" , 
"GPS_LATI" : 36.304085, 
"GPS_LONG" : 127.353516, 
"ROAD_NM" : "계백로" , 
"ROAD_NM_ADDR" : " " , 
"ROUTE_CD" : "30300127" , 
"TOTAL_DIST" : "10031" 
} ,
{
"BUSSTOP_ENG_NM" : "Gasuwon Station" , 
"BUSSTOP_NM" : "가수원역" , 
"BUSSTOP_SEQ" : "25" , 
"BUSSTOP_TP" : " " , 
"BUS_NODE_ID" : "8001026" , 
"BUS_STOP_ID" : "33180" , 
"GPS_LATI" : 36.2986, 
"GPS_LONG" : 127.35589, 
"ROAD_NM" : "벌곡로" , 
"ROAD_NM_ADDR" : " " , 
"ROUTE_CD" : "30300127" , 
"TOTAL_DIST" : "10684" 
} ,
{
"BUSSTOP_ENG_NM" : "Gasuwon Station" , 
"BUSSTOP_NM" : "가수원역" , 
"BUSSTOP_SEQ" : "26" , 
"BUSSTOP_TP" : "2" , 
"BUS_NODE_ID" : "8001027" , 
"BUS_STOP_ID" : "33190" , 
"GPS_LATI" : 36.299187, 
"GPS_LONG" : 127.35597, 
"ROAD_NM" : "벌곡로" , 
"ROAD_NM_ADDR" : " " , 
"ROUTE_CD" : "30300127" , 
"TOTAL_DIST" : "10796" 
} ,
{
"BUSSTOP_ENG_NM" : "---" , 
"BUSSTOP_NM" : "가수원역" , 
"BUSSTOP_SEQ" : "27" , 
"BUSSTOP_TP" : " " , 
"BUS_NODE_ID" : "9001027" , 
"BUS_STOP_ID" : "9001027" , 
"GPS_LATI" : 36.298588, 
"GPS_LONG" : 127.35589, 
"ROAD_NM" : " " , 
"ROAD_NM_ADDR" : " " , 
"ROUTE_CD" : "30300127" , 
"TOTAL_DIST" : "10962" 
} ,
{
"BUSSTOP_ENG_NM" : "Gasuwon Overpass" , 
"BUSSTOP_NM" : "가수원육교.가수원시장" , 
"BUSSTOP_SEQ" : "28" , 
"BUSSTOP_TP" : " " , 
"BUS_NODE_ID" : "8001028" , 
"BUS_STOP_ID" : "33040" , 
"GPS_LATI" : 36.30469, 
"GPS_LONG" : 127.350845, 
"ROAD_NM" : "계백로" , 
"ROAD_NM_ADDR" : " " , 
"ROUTE_CD" : "30300127" , 
"TOTAL_DIST" : "11728" 
} ,
{
"BUSSTOP_ENG_NM" : "Dongbang High School" , 
"BUSSTOP_NM" : "동방고등학교" , 
"BUSSTOP_SEQ" : "29" , 
"BUSSTOP_TP" : " " , 
"BUS_NODE_ID" : "8001526" , 
"BUS_STOP_ID" : "33000" , 
"GPS_LATI" : 36.30373, 
"GPS_LONG" : 127.34588, 
"ROAD_NM" : "계백로" , 
"ROAD_NM_ADDR" : " " , 
"ROUTE_CD" : "30300127" , 
"TOTAL_DIST" : "12187" 
} ,
{
"BUSSTOP_ENG_NM" : "Konyang University Hospital Negeori(Intersection)" , 
"BUSSTOP_NM" : "건양대병원네거리" , 
"BUSSTOP_SEQ" : "30" , 
"BUSSTOP_TP" : " " , 
"BUS_NODE_ID" : "8001080" , 
"BUS_STOP_ID" : "33590" , 
"GPS_LATI" : 36.30139, 
"GPS_LONG" : 127.34061, 
"ROAD_NM" : "관저동로" , 
"ROAD_NM_ADDR" : " " , 
"ROUTE_CD" : "30300127" , 
"TOTAL_DIST" : "12796" 
} ,
{
"BUSSTOP_ENG_NM" : "Neuriulmaeul Apts.12" , 
"BUSSTOP_NM" : "느리울12단지" , 
"BUSSTOP_SEQ" : "31" , 
"BUSSTOP_TP" : " " , 
"BUS_NODE_ID" : "8001290" , 
"BUS_STOP_ID" : "33580" , 
"GPS_LATI" : 36.298435, 
"GPS_LONG" : 127.34066, 
"ROAD_NM" : "관저동로" , 
"ROAD_NM_ADDR" : " " , 
"ROUTE_CD" : "30300127" , 
"TOTAL_DIST" : "13124" 
} ,
{
"BUSSTOP_ENG_NM" : "---" , 
"BUSSTOP_NM" : "느리울13단지" , 
"BUSSTOP_SEQ" : "32" , 
"BUSSTOP_TP" : " " , 
"BUS_NODE_ID" : "8007286" , 
"BUS_STOP_ID" : "35260" , 
"GPS_LATI" : 36.297474, 
"GPS_LONG" : 127.34458, 
"ROAD_NM" : " " , 
"ROAD_NM_ADDR" : " " , 
"ROUTE_CD" : "30300127" , 
"TOTAL_DIST" : "13657" 
} ,
{
"BUSSTOP_ENG_NM" : "---" , 
"BUSSTOP_NM" : "어반힐스아파트" , 
"BUSSTOP_SEQ" : "33" , 
"BUSSTOP_TP" : " " , 
"BUS_NODE_ID" : "8007284" , 
"BUS_STOP_ID" : "35240" , 
"GPS_LATI" : 36.293922, 
"GPS_LONG" : 127.343346, 
"ROAD_NM" : " " , 
"ROAD_NM_ADDR" : " " , 
"ROUTE_CD" : "30300127" , 
"TOTAL_DIST" : "14175" 
} ,
{
"BUSSTOP_ENG_NM" : "---" , 
"BUSSTOP_NM" : "다온숲아파트" , 
"BUSSTOP_SEQ" : "34" , 
"BUSSTOP_TP" : " " , 
"BUS_NODE_ID" : "8007282" , 
"BUS_STOP_ID" : "35220" , 
"GPS_LATI" : 36.292477, 
"GPS_LONG" : 127.339554, 
"ROAD_NM" : " " , 
"ROAD_NM_ADDR" : " " , 
"ROUTE_CD" : "30300127" , 
"TOTAL_DIST" : "14607" 
} ,
{
"BUSSTOP_ENG_NM" : "---" , 
"BUSSTOP_NM" : "관저체육공원" , 
"BUSSTOP_SEQ" : "35" , 
"BUSSTOP_TP" : " " , 
"BUS_NODE_ID" : "8007287" , 
"BUS_STOP_ID" : "35270" , 
"GPS_LATI" : 36.29238, 
"GPS_LONG" : 127.33737, 
"ROAD_NM" : " " , 
"ROAD_NM_ADDR" : " " , 
"ROUTE_CD" : "30300127" , 
"TOTAL_DIST" : "14803" 
} ,
{
"BUSSTOP_ENG_NM" : "---" , 
"BUSSTOP_NM" : "관저동예미지아파트" , 
"BUSSTOP_SEQ" : "36" , 
"BUSSTOP_TP" : " " , 
"BUS_NODE_ID" : "8007397" , 
"BUS_STOP_ID" : "35530" , 
"GPS_LATI" : 36.2924, 
"GPS_LONG" : 127.33312, 
"ROAD_NM" : " " , 
"ROAD_NM_ADDR" : " " , 
"ROUTE_CD" : "30300127" , 
"TOTAL_DIST" : "15184" 
} ,
{
"BUSSTOP_ENG_NM" : "---" , 
"BUSSTOP_NM" : "관저더샵1단지" , 
"BUSSTOP_SEQ" : "37" , 
"BUSSTOP_TP" : " " , 
"BUS_NODE_ID" : "8007405" , 
"BUS_STOP_ID" : "35570" , 
"GPS_LATI" : 36.29383, 
"GPS_LONG" : 127.32778, 
"ROAD_NM" : " " , 
"ROAD_NM_ADDR" : " " , 
"ROUTE_CD" : "30300127" , 
"TOTAL_DIST" : "15705" 
} ,
{
"BUSSTOP_ENG_NM" : "---" , 
"BUSSTOP_NM" : "서일고/서일여고" , 
"BUSSTOP_SEQ" : "38" , 
"BUSSTOP_TP" : " " , 
"BUS_NODE_ID" : "8007319" , 
"BUS_STOP_ID" : "35290" , 
"GPS_LATI" : 36.295513, 
"GPS_LONG" : 127.32604, 
"ROAD_NM" : " " , 
"ROAD_NM_ADDR" : " " , 
"ROUTE_CD" : "30300127" , 
"TOTAL_DIST" : "16066" 
} ,
{
"BUSSTOP_ENG_NM" : "Jinjam Negeori(Intersection)" , 
"BUSSTOP_NM" : "진잠네거리" , 
"BUSSTOP_SEQ" : "39" , 
"BUSSTOP_TP" : " " , 
"BUS_NODE_ID" : "8005532" , 
"BUS_STOP_ID" : "33310" , 
"GPS_LATI" : 36.298046, 
"GPS_LONG" : 127.3251, 
"ROAD_NM" : " " , 
"ROAD_NM_ADDR" : " " , 
"ROUTE_CD" : "30300127" , 
"TOTAL_DIST" : "16409" 
} ,
{
"BUSSTOP_ENG_NM" : "Saemmultown Apts." , 
"BUSSTOP_NM" : "샘물타운아파트" , 
"BUSSTOP_SEQ" : "40" , 
"BUSSTOP_TP" : " " , 
"BUS_NODE_ID" : "8001916" , 
"BUS_STOP_ID" : "40210" , 
"GPS_LATI" : 36.29987, 
"GPS_LONG" : 127.32176, 
"ROAD_NM" : "원내로" , 
"ROAD_NM_ADDR" : " " , 
"ROUTE_CD" : "30300127" , 
"TOTAL_DIST" : "16788" 
} ,
{
"BUSSTOP_ENG_NM" : "Wonnae-dong" , 
"BUSSTOP_NM" : "원내네거리" , 
"BUSSTOP_SEQ" : "41" , 
"BUSSTOP_TP" : " " , 
"BUS_NODE_ID" : "8002352" , 
"BUS_STOP_ID" : "40110" , 
"GPS_LATI" : 36.2997, 
"GPS_LONG" : 127.318184, 
"ROAD_NM" : " " , 
"ROAD_NM_ADDR" : " " , 
"ROUTE_CD" : "30300127" , 
"TOTAL_DIST" : "17114" 
} ,
{
"BUSSTOP_ENG_NM" : "Jinjam Elementary School" , 
"BUSSTOP_NM" : "진잠초등학교" , 
"BUSSTOP_SEQ" : "42" , 
"BUSSTOP_TP" : " " , 
"BUS_NODE_ID" : "8002679" , 
"BUS_STOP_ID" : "40010" , 
"GPS_LATI" : 36.301, 
"GPS_LONG" : 127.315384, 
"ROAD_NM" : " " , 
"ROAD_NM_ADDR" : " " , 
"ROUTE_CD" : "30300127" , 
"TOTAL_DIST" : "17514" 
} ,
{
"BUSSTOP_ENG_NM" : "Gyochon Elementary School" , 
"BUSSTOP_NM" : "진잠향교" , 
"BUSSTOP_SEQ" : "43" , 
"BUSSTOP_TP" : " " , 
"BUS_NODE_ID" : "8002673" , 
"BUS_STOP_ID" : "40050" , 
"GPS_LATI" : 36.303165, 
"GPS_LONG" : 127.316635, 
"ROAD_NM" : " " , 
"ROAD_NM_ADDR" : " " , 
"ROUTE_CD" : "30300127" , 
"TOTAL_DIST" : "17820" 
} ,
{
"BUSSTOP_ENG_NM" : "J Park Apts." , 
"BUSSTOP_NM" : "제이파크아파트" , 
"BUSSTOP_SEQ" : "44" , 
"BUSSTOP_TP" : " " , 
"BUS_NODE_ID" : "8002574" , 
"BUS_STOP_ID" : "40140" , 
"GPS_LATI" : 36.303707, 
"GPS_LONG" : 127.31873, 
"ROAD_NM" : " " , 
"ROAD_NM_ADDR" : " " , 
"ROUTE_CD" : "30300127" , 
"TOTAL_DIST" : "18019" 
} ,
{
"BUSSTOP_ENG_NM" : "HanseungMemade Apts." , 
"BUSSTOP_NM" : "한승미메이드아파트" , 
"BUSSTOP_SEQ" : "45" , 
"BUSSTOP_TP" : " " , 
"BUS_NODE_ID" : "8002949" , 
"BUS_STOP_ID" : "40150" , 
"GPS_LATI" : 36.306267, 
"GPS_LONG" : 127.31981, 
"ROAD_NM" : " " , 
"ROAD_NM_ADDR" : " " , 
"ROUTE_CD" : "30300127" , 
"TOTAL_DIST" : "18422" 
} ,
{
"BUSSTOP_ENG_NM" : "Prison" , 
"BUSSTOP_NM" : "교도소" , 
"BUSSTOP_SEQ" : "46" , 
"BUSSTOP_TP" : " " , 
"BUS_NODE_ID" : "8001136" , 
"BUS_STOP_ID" : "40350" , 
"GPS_LATI" : 36.31144, 
"GPS_LONG" : 127.325195, 
"ROAD_NM" : "한우물로" , 
"ROAD_NM_ADDR" : " " , 
"ROUTE_CD" : "30300127" , 
"TOTAL_DIST" : "19512" 
} ,
{
"BUSSTOP_ENG_NM" : "Prison Entrance" , 
"BUSSTOP_NM" : "교도소입구" , 
"BUSSTOP_SEQ" : "47" , 
"BUSSTOP_TP" : " " , 
"BUS_NODE_ID" : "8001137" , 
"BUS_STOP_ID" : "40250" , 
"GPS_LATI" : 36.30974, 
"GPS_LONG" : 127.31823, 
"ROAD_NM" : "유성대로" , 
"ROAD_NM_ADDR" : " " , 
"ROUTE_CD" : "30300127" , 
"TOTAL_DIST" : "20234" 
} ,
{
"BUSSTOP_ENG_NM" : "Gyochon 3(sam)-tong" , 
"BUSSTOP_NM" : "교촌3통" , 
"BUSSTOP_SEQ" : "48" , 
"BUSSTOP_TP" : " " , 
"BUS_NODE_ID" : "8001140" , 
"BUS_STOP_ID" : "40300" , 
"GPS_LATI" : 36.31188, 
"GPS_LONG" : 127.31859, 
"ROAD_NM" : "대정남로" , 
"ROAD_NM_ADDR" : " " , 
"ROUTE_CD" : "30300127" , 
"TOTAL_DIST" : "20616" 
} ,
{
"BUSSTOP_ENG_NM" : "Deurium Apts." , 
"BUSSTOP_NM" : "드리움아파트" , 
"BUSSTOP_SEQ" : "49" , 
"BUSSTOP_TP" : " " , 
"BUS_NODE_ID" : "8001579" , 
"BUS_STOP_ID" : "40340" , 
"GPS_LATI" : 36.313576, 
"GPS_LONG" : 127.32004, 
"ROAD_NM" : "대정로" , 
"ROAD_NM_ADDR" : " " , 
"ROUTE_CD" : "30300127" , 
"TOTAL_DIST" : "20901" 
} ,
{
"BUSSTOP_ENG_NM" : "Deurium Park" , 
"BUSSTOP_NM" : "한샘근린공원" , 
"BUSSTOP_SEQ" : "50" , 
"BUSSTOP_TP" : " " , 
"BUS_NODE_ID" : "8001578" , 
"BUS_STOP_ID" : "45310" , 
"GPS_LATI" : 36.315403, 
"GPS_LONG" : 127.32004, 
"ROAD_NM" : "대정로" , 
"ROAD_NM_ADDR" : " " , 
"ROUTE_CD" : "30300127" , 
"TOTAL_DIST" : "21103" 
} ,
{
"BUSSTOP_ENG_NM" : "Freight Terminal" , 
"BUSSTOP_NM" : "화물터미널" , 
"BUSSTOP_SEQ" : "51" , 
"BUSSTOP_TP" : "3" , 
"BUS_NODE_ID" : "8005978" , 
"BUS_STOP_ID" : "40320" , 
"GPS_LATI" : 36.3184, 
"GPS_LONG" : 127.32007, 
"ROAD_NM" : " " , 
"ROAD_NM_ADDR" : " " , 
"ROUTE_CD" : "30300127" , 
"TOTAL_DIST" : "21461" 
} ,
{
"BUSSTOP_ENG_NM" : "Daejeon Station East Square" , 
"BUSSTOP_NM" : "대전역동광장" , 
"BUSSTOP_SEQ" : "1" , 
"BUSSTOP_TP" : "1" , 
"BUS_NODE_ID" : "8005504" , 
"BUS_STOP_ID" : "11410" , 
"GPS_LATI" : 36.33353, 
"GPS_LONG" : 127.43734, 
"ROAD_NM" : " " , 
"ROAD_NM_ADDR" : " " , 
"ROUTE_CD" : "30300128" , 
"TOTAL_DIST" : "53" 
} ,
{
"BUSSTOP_ENG_NM" : "---" , 
"BUSSTOP_NM" : "대전역" , 
"BUSSTOP_SEQ" : "2" , 
"BUSSTOP_TP" : " " , 
"BUS_NODE_ID" : "8007412" , 
"BUS_STOP_ID" : "14730" , 
"GPS_LATI" : 36.332798, 
"GPS_LONG" : 127.43197, 
"ROAD_NM" : " " , 
"ROAD_NM_ADDR" : " " , 
"ROUTE_CD" : "30300128" , 
"TOTAL_DIST" : "866" 
} ,
{
"BUSSTOP_ENG_NM" : "---" , 
"BUSSTOP_NM" : "한밭자이아파트" , 
"BUSSTOP_SEQ" : "3" , 
"BUSSTOP_TP" : " " , 
"BUS_NODE_ID" : "8007269" , 
"BUS_STOP_ID" : "14590" , 
"GPS_LATI" : 36.340706, 
"GPS_LONG" : 127.42624, 
"ROAD_NM" : " " , 
"ROAD_NM_ADDR" : " " , 
"ROUTE_CD" : "30300128" , 
"TOTAL_DIST" : "1907" 
} ,
{
"BUSSTOP_ENG_NM" : "---" , 
"BUSSTOP_NM" : "솔랑마을아파트" , 
"BUSSTOP_SEQ" : "4" , 
"BUSSTOP_TP" : " " , 
"BUS_NODE_ID" : "8007271" , 
"BUS_STOP_ID" : "14610" , 
"GPS_LATI" : 36.343445, 
"GPS_LONG" : 127.42238, 
"ROAD_NM" : " " , 
"ROAD_NM_ADDR" : " " , 
"ROUTE_CD" : "30300128" , 
"TOTAL_DIST" : "2369" 
} ,
{
"BUSSTOP_ENG_NM" : "---" , 
"BUSSTOP_NM" : "대덕구청" , 
"BUSSTOP_SEQ" : "5" , 
"BUSSTOP_TP" : " " , 
"BUS_NODE_ID" : "8007273" , 
"BUS_STOP_ID" : "53400" , 
"GPS_LATI" : 36.346073, 
"GPS_LONG" : 127.418785, 
"ROAD_NM" : " " , 
"ROAD_NM_ADDR" : " " , 
"ROUTE_CD" : "30300128" , 
"TOTAL_DIST" : "2804" 
} ,
{
"BUSSTOP_ENG_NM" : "---" , 
"BUSSTOP_NM" : "한남오거리(BRT)" , 
"BUSSTOP_SEQ" : "6" , 
"BUSSTOP_TP" : " " , 
"BUS_NODE_ID" : "8007275" , 
"BUS_STOP_ID" : "53420" , 
"GPS_LATI" : 36.349724, 
"GPS_LONG" : 127.4144, 
"ROAD_NM" : " " , 
"ROAD_NM_ADDR" : " " , 
"ROUTE_CD" : "30300128" , 
"TOTAL_DIST" : "3369" 
} ,
{
"BUSSTOP_ENG_NM" : "---" , 
"BUSSTOP_NM" : "오정동행정복지센터" , 
"BUSSTOP_SEQ" : "7" , 
"BUSSTOP_TP" : " " , 
"BUS_NODE_ID" : "8007277" , 
"BUS_STOP_ID" : "53440" , 
"GPS_LATI" : 36.351765, 
"GPS_LONG" : 127.41176, 
"ROAD_NM" : " " , 
"ROAD_NM_ADDR" : " " , 
"ROUTE_CD" : "30300128" , 
"TOTAL_DIST" : "3698" 
} ,
{
"BUSSTOP_ENG_NM" : "---" , 
"BUSSTOP_NM" : "오정농수산오거리" , 
"BUSSTOP_SEQ" : "8" , 
"BUSSTOP_TP" : " " , 
"BUS_NODE_ID" : "8007279" , 
"BUS_STOP_ID" : "53460" , 
"GPS_LATI" : 36.355083, 
"GPS_LONG" : 127.40762, 
"ROAD_NM" : " " , 
"ROAD_NM_ADDR" : " " , 
"ROUTE_CD" : "30300128" , 
"TOTAL_DIST" : "4220" 
} ,
{
"BUSSTOP_ENG_NM" : "---" , 
"BUSSTOP_NM" : "오정농수산시장" , 
"BUSSTOP_SEQ" : "9" , 
"BUSSTOP_TP" : " " , 
"BUS_NODE_ID" : "8007288" , 
"BUS_STOP_ID" : "53480" , 
"GPS_LATI" : 36.35867, 
"GPS_LONG" : 127.404686, 
"ROAD_NM" : " " , 
"ROAD_NM_ADDR" : " " , 
"ROUTE_CD" : "30300128" , 
"TOTAL_DIST" : "4720" 
} ,
{
"BUSSTOP_ENG_NM" : "---" , 
"BUSSTOP_NM" : "대덕산업단지" , 
"BUSSTOP_SEQ" : "10" , 
"BUSSTOP_TP" : " " , 
"BUS_NODE_ID" : "8007289" , 
"BUS_STOP_ID" : "53490" , 
"GPS_LATI" : 36.43776, 
"GPS_LONG" : 127.3964, 
"ROAD_NM" : " " , 
"ROAD_NM_ADDR" : " " , 
"ROUTE_CD" : "30300128" , 
"TOTAL_DIST" : "15465" 
} ,
{
"BUSSTOP_ENG_NM" : "---" , 
"BUSSTOP_NM" : "한국개발연구원(KDI)" , 
"BUSSTOP_SEQ" : "11" , 
"BUSSTOP_TP" : " " , 
"BUS_NODE_ID" : "8007291" , 
"BUS_STOP_ID" : "051120" , 
"GPS_LATI" : 36.481125, 
"GPS_LONG" : 127.30788, 
"ROAD_NM" : " " , 
"ROAD_NM_ADDR" : " " , 
"ROUTE_CD" : "30300128" , 
"TOTAL_DIST" : "26087" 
} ,
{
"BUSSTOP_ENG_NM" : "---" , 
"BUSSTOP_NM" : "소담동" , 
"BUSSTOP_SEQ" : "12" , 
"BUSSTOP_TP" : " " , 
"BUS_NODE_ID" : "8007293" , 
"BUS_STOP_ID" : "051115" , 
"GPS_LATI" : 36.482742, 
"GPS_LONG" : 127.29741, 
"ROAD_NM" : " " , 
"ROAD_NM_ADDR" : " " , 
"ROUTE_CD" : "30300128" , 
"TOTAL_DIST" : "27469" 
} ,
{
"BUSSTOP_ENG_NM" : "---" , 
"BUSSTOP_NM" : "세종시청.교육청.시의회" , 
"BUSSTOP_SEQ" : "13" , 
"BUSSTOP_TP" : " " , 
"BUS_NODE_ID" : "8007295" , 
"BUS_STOP_ID" : "051112" , 
"GPS_LATI" : 36.478638, 
"GPS_LONG" : 127.28877, 
"ROAD_NM" : " " , 
"ROAD_NM_ADDR" : " " , 
"ROUTE_CD" : "30300128" , 
"TOTAL_DIST" : "28368" 
} ,
{
"BUSSTOP_ENG_NM" : "---" , 
"BUSSTOP_NM" : "보람동.대평동" , 
"BUSSTOP_SEQ" : "14" , 
"BUSSTOP_TP" : " " , 
"BUS_NODE_ID" : "8007297" , 
"BUS_STOP_ID" : "051110" , 
"GPS_LATI" : 36.475502, 
"GPS_LONG" : 127.281425, 
"ROAD_NM" : " " , 
"ROAD_NM_ADDR" : " " , 
"ROUTE_CD" : "30300128" , 
"TOTAL_DIST" : "29114" 
} ,
{
"BUSSTOP_ENG_NM" : "---" , 
"BUSSTOP_NM" : "대평동" , 
"BUSSTOP_SEQ" : "15" , 
"BUSSTOP_TP" : " " , 
"BUS_NODE_ID" : "8007400" , 
"BUS_STOP_ID" : "076070" , 
"GPS_LATI" : 36.47217, 
"GPS_LONG" : 127.27615, 
"ROAD_NM" : " " , 
"ROAD_NM_ADDR" : " " , 
"ROUTE_CD" : "30300128" , 
"TOTAL_DIST" : "29711" 
} ,
{
"BUSSTOP_ENG_NM" : "---" , 
"BUSSTOP_NM" : "세종터미널" , 
"BUSSTOP_SEQ" : "16" , 
"BUSSTOP_TP" : " " , 
"BUS_NODE_ID" : "8007299" , 
"BUS_STOP_ID" : "051121" , 
"GPS_LATI" : 36.470848, 
"GPS_LONG" : 127.273125, 
"ROAD_NM" : " " , 
"ROAD_NM_ADDR" : " " , 
"ROUTE_CD" : "30300128" , 
"TOTAL_DIST" : "30015" 
} ,
{
"BUSSTOP_ENG_NM" : "First village Apts Terminal" , 
"BUSSTOP_NM" : "한솔동" , 
"BUSSTOP_SEQ" : "17" , 
"BUSSTOP_TP" : " " , 
"BUS_NODE_ID" : "8007052" , 
"BUS_STOP_ID" : "051048" , 
"GPS_LATI" : 36.48031, 
"GPS_LONG" : 127.262566, 
"ROAD_NM" : " " , 
"ROAD_NM_ADDR" : " " , 
"ROUTE_CD" : "30300128" , 
"TOTAL_DIST" : "31515" 
} ,
{
"BUSSTOP_ENG_NM" : "Naseong-dong" , 
"BUSSTOP_NM" : "새롬동.나성동" , 
"BUSSTOP_SEQ" : "18" , 
"BUSSTOP_TP" : " " , 
"BUS_NODE_ID" : "3053005" , 
"BUS_STOP_ID" : "051007" , 
"GPS_LATI" : 36.486855, 
"GPS_LONG" : 127.25796, 
"ROAD_NM" : " " , 
"ROAD_NM_ADDR" : " " , 
"ROUTE_CD" : "30300128" , 
"TOTAL_DIST" : "32351" 
} ,
{
"BUSSTOP_ENG_NM" : "Seongnam High School" , 
"BUSSTOP_NM" : "다정동" , 
"BUSSTOP_SEQ" : "19" , 
"BUSSTOP_TP" : " " , 
"BUS_NODE_ID" : "3054003" , 
"BUS_STOP_ID" : "051015" , 
"GPS_LATI" : 36.49384, 
"GPS_LONG" : 127.25661, 
"ROAD_NM" : " " , 
"ROAD_NM_ADDR" : " " , 
"ROUTE_CD" : "30300128" , 
"TOTAL_DIST" : "33148" 
} ,
{
"BUSSTOP_ENG_NM" : "---" , 
"BUSSTOP_NM" : "정부세종청사남측" , 
"BUSSTOP_SEQ" : "20" , 
"BUSSTOP_TP" : " " , 
"BUS_NODE_ID" : "3062006" , 
"BUS_STOP_ID" : "052029" , 
"GPS_LATI" : 36.500698, 
"GPS_LONG" : 127.25968, 
"ROAD_NM" : " " , 
"ROAD_NM_ADDR" : " " , 
"ROUTE_CD" : "30300128" , 
"TOTAL_DIST" : "33966" 
} ,
{
"BUSSTOP_ENG_NM" : "---" , 
"BUSSTOP_NM" : "정부세종청사북측" , 
"BUSSTOP_SEQ" : "21" , 
"BUSSTOP_TP" : " " , 
"BUS_NODE_ID" : "8007053" , 
"BUS_STOP_ID" : "052033" , 
"GPS_LATI" : 36.504173, 
"GPS_LONG" : 127.261246, 
"ROAD_NM" : " " , 
"ROAD_NM_ADDR" : " " , 
"ROUTE_CD" : "30300128" , 
"TOTAL_DIST" : "34376" 
} ,
{
"BUSSTOP_ENG_NM" : "---" , 
"BUSSTOP_NM" : "도담동" , 
"BUSSTOP_SEQ" : "22" , 
"BUSSTOP_TP" : " " , 
"BUS_NODE_ID" : "3056003" , 
"BUS_STOP_ID" : "052008" , 
"GPS_LATI" : 36.51395, 
"GPS_LONG" : 127.25929, 
"ROAD_NM" : " " , 
"ROAD_NM_ADDR" : " " , 
"ROUTE_CD" : "30300128" , 
"TOTAL_DIST" : "35530" 
} ,
{
"BUSSTOP_ENG_NM" : "---" , 
"BUSSTOP_NM" : "세종충남대학교병원" , 
"BUSSTOP_SEQ" : "23" , 
"BUSSTOP_TP" : " " , 
"BUS_NODE_ID" : "8007492" , 
"BUS_STOP_ID" : "052064" , 
"GPS_LATI" : 36.520515, 
"GPS_LONG" : 127.25949, 
"ROAD_NM" : " " , 
"ROAD_NM_ADDR" : " " , 
"ROUTE_CD" : "30300128" , 
"TOTAL_DIST" : "36259" 
} ,
{
"BUSSTOP_ENG_NM" : "---" , 
"BUSSTOP_NM" : "해밀리" , 
"BUSSTOP_SEQ" : "24" , 
"BUSSTOP_TP" : " " , 
"BUS_NODE_ID" : "3014014" , 
"BUS_STOP_ID" : "031056" , 
"GPS_LATI" : 36.528637, 
"GPS_LONG" : 127.26408, 
"ROAD_NM" : " " , 
"ROAD_NM_ADDR" : " " , 
"ROUTE_CD" : "30300128" , 
"TOTAL_DIST" : "37255" 
} ,
{
"BUSSTOP_ENG_NM" : "---" , 
"BUSSTOP_NM" : "한별리" , 
"BUSSTOP_SEQ" : "25" , 
"BUSSTOP_TP" : " " , 
"BUS_NODE_ID" : "3014025" , 
"BUS_STOP_ID" : "031054" , 
"GPS_LATI" : 36.533924, 
"GPS_LONG" : 127.27671, 
"ROAD_NM" : " " , 
"ROAD_NM_ADDR" : " " , 
"ROUTE_CD" : "30300128" , 
"TOTAL_DIST" : "38567" 
} ,
{
"BUSSTOP_ENG_NM" : "---" , 
"BUSSTOP_NM" : "누리리" , 
"BUSSTOP_SEQ" : "26" , 
"BUSSTOP_TP" : " " , 
"BUS_NODE_ID" : "8007452" , 
"BUS_STOP_ID" : "031073" , 
"GPS_LATI" : 36.53398, 
"GPS_LONG" : 127.29214, 
"ROAD_NM" : " " , 
"ROAD_NM_ADDR" : " " , 
"ROUTE_CD" : "30300128" , 
"TOTAL_DIST" : "39960" 
} ,
{
"BUSSTOP_ENG_NM" : "---" , 
"BUSSTOP_NM" : "오송역" , 
"BUSSTOP_SEQ" : "27" , 
"BUSSTOP_TP" : "2" , 
"BUS_NODE_ID" : "8007055" , 
"BUS_STOP_ID" : "013012" , 
"GPS_LATI" : 36.619198, 
"GPS_LONG" : 127.3271, 
"ROAD_NM" : " " , 
"ROAD_NM_ADDR" : " " , 
"ROUTE_CD" : "30300128" , 
"TOTAL_DIST" : "51900" 
} ,
{
"BUSSTOP_ENG_NM" : "---" , 
"BUSSTOP_NM" : "오송역" , 
"BUSSTOP_SEQ" : "28" , 
"BUSSTOP_TP" : " " , 
"BUS_NODE_ID" : "9007055" , 
"BUS_STOP_ID" : "9007055" , 
"GPS_LATI" : 36.61655, 
"GPS_LONG" : 127.3289, 
"ROAD_NM" : " " , 
"ROAD_NM_ADDR" : " " , 
"ROUTE_CD" : "30300128" , 
"TOTAL_DIST" : "52434" 
} ,
{
"BUSSTOP_ENG_NM" : "---" , 
"BUSSTOP_NM" : "누리리" , 
"BUSSTOP_SEQ" : "29" , 
"BUSSTOP_TP" : " " , 
"BUS_NODE_ID" : "8007451" , 
"BUS_STOP_ID" : "031057" , 
"GPS_LATI" : 36.5341, 
"GPS_LONG" : 127.29215, 
"ROAD_NM" : " " , 
"ROAD_NM_ADDR" : " " , 
"ROUTE_CD" : "30300128" , 
"TOTAL_DIST" : "63975" 
} ,
{
"BUSSTOP_ENG_NM" : "---" , 
"BUSSTOP_NM" : "한별리" , 
"BUSSTOP_SEQ" : "30" , 
"BUSSTOP_TP" : " " , 
"BUS_NODE_ID" : "3014026" , 
"BUS_STOP_ID" : "031053" , 
"GPS_LATI" : 36.534035, 
"GPS_LONG" : 127.27634, 
"ROAD_NM" : " " , 
"ROAD_NM_ADDR" : " " , 
"ROUTE_CD" : "30300128" , 
"TOTAL_DIST" : "65402" 
} ,
{
"BUSSTOP_ENG_NM" : "---" , 
"BUSSTOP_NM" : "해밀리" , 
"BUSSTOP_SEQ" : "31" , 
"BUSSTOP_TP" : " " , 
"BUS_NODE_ID" : "3014017" , 
"BUS_STOP_ID" : "031055" , 
"GPS_LATI" : 36.529377, 
"GPS_LONG" : 127.264534, 
"ROAD_NM" : " " , 
"ROAD_NM_ADDR" : " " , 
"ROUTE_CD" : "30300128" , 
"TOTAL_DIST" : "66605" 
} ,
{
"BUSSTOP_ENG_NM" : "---" , 
"BUSSTOP_NM" : "세종충남대학교병원" , 
"BUSSTOP_SEQ" : "32" , 
"BUSSTOP_TP" : " " , 
"BUS_NODE_ID" : "8007493" , 
"BUS_STOP_ID" : "052065" , 
"GPS_LATI" : 36.521618, 
"GPS_LONG" : 127.259735, 
"ROAD_NM" : " " , 
"ROAD_NM_ADDR" : " " , 
"ROUTE_CD" : "30300128" , 
"TOTAL_DIST" : "67579" 
} ,
{
"BUSSTOP_ENG_NM" : "---" , 
"BUSSTOP_NM" : "도담동" , 
"BUSSTOP_SEQ" : "33" , 
"BUSSTOP_TP" : " " , 
"BUS_NODE_ID" : "3056002" , 
"BUS_STOP_ID" : "052009" , 
"GPS_LATI" : 36.514725, 
"GPS_LONG" : 127.258934, 
"ROAD_NM" : " " , 
"ROAD_NM_ADDR" : " " , 
"ROUTE_CD" : "30300128" , 
"TOTAL_DIST" : "68349" 
} ,
{
"BUSSTOP_ENG_NM" : "---" , 
"BUSSTOP_NM" : "정부세종청사북측" , 
"BUSSTOP_SEQ" : "34" , 
"BUSSTOP_TP" : " " , 
"BUS_NODE_ID" : "8007080" , 
"BUS_STOP_ID" : "052036" , 
"GPS_LATI" : 36.504997, 
"GPS_LONG" : 127.261505, 
"ROAD_NM" : " " , 
"ROAD_NM_ADDR" : " " , 
"ROUTE_CD" : "30300128" , 
"TOTAL_DIST" : "69486" 
} ,
{
"BUSSTOP_ENG_NM" : "---" , 
"BUSSTOP_NM" : "정부세종청사남측" , 
"BUSSTOP_SEQ" : "35" , 
"BUSSTOP_TP" : " " , 
"BUS_NODE_ID" : "3062007" , 
"BUS_STOP_ID" : "052030" , 
"GPS_LATI" : 36.501614, 
"GPS_LONG" : 127.25988, 
"ROAD_NM" : " " , 
"ROAD_NM_ADDR" : " " , 
"ROUTE_CD" : "30300128" , 
"TOTAL_DIST" : "69890" 
} ,
{
"BUSSTOP_ENG_NM" : "Seongnam High School" , 
"BUSSTOP_NM" : "다정동" , 
"BUSSTOP_SEQ" : "36" , 
