[
    {
"BUSSTOP_ENG_NM" : "Chungnam National University" ,
"BUSSTOP_NM" : "충대농대종점" ,
"BUSSTOP_SEQ" : "1" ,
"BUSSTOP_TP" : "1" ,
"BUS_NODE_ID" : "8002736" ,
"BUS_STOP_ID" : "42740" ,
"GPS_LATI" : 36.365704 ,
"GPS_LONG" : 127.352036 ,
"ROAD_NM" : " " ,
"ROAD_NM_ADDR" : " " ,
"ROUTE_CD" : "30300001" ,
"TOTAL_DIST" : "99"
} ,
{
"BUSSTOP_ENG_NM" : "Hanbit Apts." ,
"BUSSTOP_NM" : "한빛아파트" ,
"BUSSTOP_SEQ" : "2" ,
"BUSSTOP_TP" : " " ,
"BUS_NODE_ID" : "8002941" ,
"BUS_STOP_ID" : "42720" ,
"GPS_LATI" : 36.36286 ,
"GPS_LONG" : 127.353004 ,
"ROAD_NM" : " " ,
"ROAD_NM_ADDR" : " " ,
"ROUTE_CD" : "30300001" ,
"TOTAL_DIST" : "434"
} ,
{
"BUSSTOP_ENG_NM" : "Chungnam National University, College of Agricultural College Entrance" ,
"BUSSTOP_NM" : "충대농대입구" ,
"BUSSTOP_SEQ" : "3" ,
"BUSSTOP_TP" : " " ,
"BUS_NODE_ID" : "8002735" ,
"BUS_STOP_ID" : "42710" ,
"GPS_LATI" : 36.36042 ,
"GPS_LONG" : 127.35253 ,
"ROAD_NM" : " " ,
"ROAD_NM_ADDR" : " " ,
"ROUTE_CD" : "30300001" ,
"TOTAL_DIST" : "815"
} ,
{
"BUSSTOP_ENG_NM" : "Gung-dong" ,
"BUSSTOP_NM" : "궁동" ,
"BUSSTOP_SEQ" : "4" ,
"BUSSTOP_TP" : " " ,
"BUS_NODE_ID" : "8001193" ,
"BUS_STOP_ID" : "42700" ,
"GPS_LATI" : 36.360806 ,
"GPS_LONG" : 127.34954 ,
"ROAD_NM" : "대학로" ,
"ROAD_NM_ADDR" : " " ,
"ROUTE_CD" : "30300001" ,
"TOTAL_DIST" : "1090"
} ,
{
"BUSSTOP_ENG_NM" : "Chungnam National University" ,
"BUSSTOP_NM" : "충남대학교" ,
"BUSSTOP_SEQ" : "5" ,
"BUSSTOP_TP" : " " ,
"BUS_NODE_ID" : "8002721" ,
"BUS_STOP_ID" : "42600" ,
"GPS_LATI" : 36.36156 ,
"GPS_LONG" : 127.34412 ,
"ROAD_NM" : " " ,
"ROAD_NM_ADDR" : " " ,
"ROUTE_CD" : "30300001" ,
"TOTAL_DIST" : "1667"
} ,
{
"BUSSTOP_ENG_NM" : "Hanjin Officetel(Studio Apt.)" ,
"BUSSTOP_NM" : "온천교" ,
"BUSSTOP_SEQ" : "6" ,
"BUSSTOP_TP" : " " ,
"BUS_NODE_ID" : "8002961" ,
"BUS_STOP_ID" : "41350" ,
"GPS_LATI" : 36.357758 ,
"GPS_LONG" : 127.3426 ,
"ROAD_NM" : " " ,
"ROAD_NM_ADDR" : " " ,
"ROUTE_CD" : "30300001" ,
"TOTAL_DIST" : "2111"
} ,
{
"BUSSTOP_ENG_NM" : "Yuseong Spa Station Exit 6" ,
"BUSSTOP_NM" : "유성온천역6번출구" ,
"BUSSTOP_SEQ" : "7" ,
"BUSSTOP_TP" : " " ,
"BUS_NODE_ID" : "8002411" ,
"BUS_STOP_ID" : "41320" ,
"GPS_LATI" : 36.35488 ,
"GPS_LONG" : 127.34153 ,
"ROAD_NM" : " " ,
"ROAD_NM_ADDR" : " " ,
"ROUTE_CD" : "30300001" ,
"TOTAL_DIST" : "2439"
} ,
{
"BUSSTOP_ENG_NM" : "Yuseong Spa Station Exit 5" ,
"BUSSTOP_NM" : "유성온천역5번출구" ,
"BUSSTOP_SEQ" : "8" ,
"BUSSTOP_TP" : " " ,
"BUS_NODE_ID" : "8002410" ,
"BUS_STOP_ID" : "41290" ,
"GPS_LATI" : 36.35433 ,
"GPS_LONG" : 127.33983 ,
"ROAD_NM" : " " ,
"ROAD_NM_ADDR" : " " ,
"ROUTE_CD" : "30300001" ,
"TOTAL_DIST" : "2731"
} ,
{
"BUSSTOP_ENG_NM" : "Yuseong Samgeori(Intersection)" ,
"BUSSTOP_NM" : "유성자이아파트" ,
"BUSSTOP_SEQ" : "9" ,
"BUSSTOP_TP" : " " ,
"BUS_NODE_ID" : "8002401" ,
"BUS_STOP_ID" : "41200" ,
"GPS_LATI" : 36.35589 ,
"GPS_LONG" : 127.336685 ,
"ROAD_NM" : " " ,
"ROAD_NM_ADDR" : " " ,
"ROUTE_CD" : "30300001" ,
"TOTAL_DIST" : "3109"
} ,
{
"BUSSTOP_ENG_NM" : "Yuseong Express Bus Terminal" ,
"BUSSTOP_NM" : "유성고속터미널" ,
"BUSSTOP_SEQ" : "10" ,
"BUSSTOP_TP" : " " ,
"BUS_NODE_ID" : "8002394" ,
"BUS_STOP_ID" : "42110" ,
"GPS_LATI" : 36.35832 ,
"GPS_LONG" : 127.336395 ,
"ROAD_NM" : " " ,
"ROAD_NM_ADDR" : " " ,
"ROUTE_CD" : "30300001" ,
"TOTAL_DIST" : "3381"
} ,
{
"BUSSTOP_ENG_NM" : "Jangdae Negeori(Intersection)" ,
"BUSSTOP_NM" : "유성초네거리" ,
"BUSSTOP_SEQ" : "11" ,
"BUSSTOP_TP" : " " ,
"BUS_NODE_ID" : "8002492" ,
"BUS_STOP_ID" : "42090" ,
"GPS_LATI" : 36.361187 ,
"GPS_LONG" : 127.33618 ,
"ROAD_NM" : " " ,
"ROAD_NM_ADDR" : " " ,
"ROUTE_CD" : "30300001" ,
"TOTAL_DIST" : "3728"
} ,
{
"BUSSTOP_ENG_NM" : "Gung-dong Negeori(Intersection)" ,
"BUSSTOP_NM" : "장대네거리" ,
"BUSSTOP_SEQ" : "12" ,
"BUSSTOP_TP" : " " ,
"BUS_NODE_ID" : "8001195" ,
"BUS_STOP_ID" : "42140" ,
"GPS_LATI" : 36.364986 ,
"GPS_LONG" : 127.33864 ,
"ROAD_NM" : "유성대로" ,
"ROAD_NM_ADDR" : " " ,
"ROUTE_CD" : "30300001" ,
"TOTAL_DIST" : "4202"
} ,
{
"BUSSTOP_ENG_NM" : "Chungnam National University Back Gate" ,
"BUSSTOP_NM" : "충대서문" ,
"BUSSTOP_SEQ" : "13" ,
"BUSSTOP_TP" : " " ,
"BUS_NODE_ID" : "8002741" ,
"BUS_STOP_ID" : "42530" ,
"GPS_LATI" : 36.369427 ,
"GPS_LONG" : 127.34012 ,
"ROAD_NM" : " " ,
"ROAD_NM_ADDR" : " " ,
"ROUTE_CD" : "30300001" ,
"TOTAL_DIST" : "4712"
} ,
{
"BUSSTOP_ENG_NM" : "Chungnam National University Playground" ,
"BUSSTOP_NM" : "북대전세무서/보훈요양원" ,
"BUSSTOP_SEQ" : "14" ,
"BUSSTOP_TP" : " " ,
"BUS_NODE_ID" : "8002739" ,
"BUS_STOP_ID" : "42560" ,
"GPS_LATI" : 36.37433 ,
"GPS_LONG" : 127.34173 ,
"ROAD_NM" : " " ,
"ROAD_NM_ADDR" : " " ,
"ROUTE_CD" : "30300001" ,
"TOTAL_DIST" : "5275"
} ,
{
"BUSSTOP_ENG_NM" : "Chungnam National University, College of Veterinary Medicine" ,
"BUSSTOP_NM" : "충대수의대" ,
"BUSSTOP_SEQ" : "15" ,
"BUSSTOP_TP" : " " ,
"BUS_NODE_ID" : "8002738" ,
"BUS_STOP_ID" : "42580" ,
"GPS_LATI" : 36.37747 ,
"GPS_LONG" : 127.34274 ,
"ROAD_NM" : " " ,
"ROAD_NM_ADDR" : " " ,
"ROUTE_CD" : "30300001" ,
"TOTAL_DIST" : "5635"
} ,
{
"BUSSTOP_ENG_NM" : "KT&G Central Research Institute1" ,
"BUSSTOP_NM" : "KT&G연구소" ,
"BUSSTOP_SEQ" : "16" ,
"BUSSTOP_TP" : " " ,
"BUS_NODE_ID" : "8081299" ,
"BUS_STOP_ID" : "42971" ,
"GPS_LATI" : 36.38403 ,
"GPS_LONG" : 127.34612 ,
"ROAD_NM" : " " ,
"ROAD_NM_ADDR" : " " ,
"ROUTE_CD" : "30300001" ,
"TOTAL_DIST" : "6460"
} ,
{
"BUSSTOP_ENG_NM" : "Lucky Hana Apts." ,
"BUSSTOP_NM" : "럭키하나아파트" ,
"BUSSTOP_SEQ" : "17" ,
"BUSSTOP_TP" : " " ,
"BUS_NODE_ID" : "8005782" ,
"BUS_STOP_ID" : "81990" ,
"GPS_LATI" : 36.38594 ,
"GPS_LONG" : 127.34803 ,
"ROAD_NM" : " " ,
"ROAD_NM_ADDR" : " " ,
"ROUTE_CD" : "30300001" ,
"TOTAL_DIST" : "6828"
} ,
{
"BUSSTOP_ENG_NM" : "Sinseong-dong Community Center" ,
"BUSSTOP_NM" : "신성동주민센터" ,
"BUSSTOP_SEQ" : "18" ,
"BUSSTOP_TP" : " " ,
"BUS_NODE_ID" : "8005758" ,
"BUS_STOP_ID" : "81220" ,
"GPS_LATI" : 36.388996 ,
"GPS_LONG" : 127.348015 ,
"ROAD_NM" : " " ,
"ROAD_NM_ADDR" : " " ,
"ROUTE_CD" : "30300001" ,
"TOTAL_DIST" : "7246"
} ,
{
"BUSSTOP_ENG_NM" : "Tandong Nonghyup bank" ,
"BUSSTOP_NM" : "탄동농협" ,
"BUSSTOP_SEQ" : "19" ,
"BUSSTOP_TP" : " " ,
"BUS_NODE_ID" : "8005784" ,
"BUS_STOP_ID" : "82000" ,
"GPS_LATI" : 36.390785 ,
"GPS_LONG" : 127.34977 ,
"ROAD_NM" : " " ,
"ROAD_NM_ADDR" : " " ,
"ROUTE_CD" : "30300001" ,
"TOTAL_DIST" : "7497"
} ,
{
"BUSSTOP_ENG_NM" : "Aegyeong Research Institute" ,
"BUSSTOP_NM" : "애경연구원" ,
"BUSSTOP_SEQ" : "20" ,
"BUSSTOP_TP" : " " ,
"BUS_NODE_ID" : "8005757" ,
"BUS_STOP_ID" : "82010" ,
"GPS_LATI" : 36.39207 ,
"GPS_LONG" : 127.35103 ,
"ROAD_NM" : " " ,
"ROAD_NM_ADDR" : " " ,
"ROUTE_CD" : "30300001" ,
"TOTAL_DIST" : "7681"
} ,
{
"BUSSTOP_ENG_NM" : "Arirang Bossam Entrance" ,
"BUSSTOP_NM" : "아리랑보쌈앞" ,
"BUSSTOP_SEQ" : "21" ,
"BUSSTOP_TP" : " " ,
"BUS_NODE_ID" : "8005756" ,
"BUS_STOP_ID" : "82020" ,
"GPS_LATI" : 36.394287 ,
"GPS_LONG" : 127.35275 ,
"ROAD_NM" : " " ,
"ROAD_NM_ADDR" : " " ,
"ROUTE_CD" : "30300001" ,
"TOTAL_DIST" : "7961"
} ,
{
"BUSSTOP_ENG_NM" : "Institute of Machinery&Materials" ,
"BUSSTOP_NM" : "한국기계연구원" ,
"BUSSTOP_SEQ" : "22" ,
"BUSSTOP_TP" : " " ,
"BUS_NODE_ID" : "8002875" ,
"BUS_STOP_ID" : "43360" ,
"GPS_LATI" : 36.395924 ,
"GPS_LONG" : 127.35568 ,
"ROAD_NM" : " " ,
"ROAD_NM_ADDR" : " " ,
"ROUTE_CD" : "30300001" ,
"TOTAL_DIST" : "8606"
} ,
{
"BUSSTOP_ENG_NM" : "Research Institute of Hankook Tire" ,
"BUSSTOP_NM" : "한국타이어중앙연구소" ,
"BUSSTOP_SEQ" : "23" ,
"BUSSTOP_TP" : " " ,
"BUS_NODE_ID" : "8002890" ,
"BUS_STOP_ID" : "43380" ,
"GPS_LATI" : 36.392006 ,
"GPS_LONG" : 127.3592 ,
"ROAD_NM" : " " ,
"ROAD_NM_ADDR" : " " ,
"ROUTE_CD" : "30300001" ,
"TOTAL_DIST" : "9184"
} ,
{
"BUSSTOP_ENG_NM" : "Daedeok University" ,
"BUSSTOP_NM" : "대덕대학" ,
"BUSSTOP_SEQ" : "24" ,
"BUSSTOP_TP" : " " ,
"BUS_NODE_ID" : "8001318" ,
"BUS_STOP_ID" : "43420" ,
"GPS_LATI" : 36.39007 ,
"GPS_LONG" : 127.362274 ,
"ROAD_NM" : "가정북로" ,
"ROAD_NM_ADDR" : " " ,
"ROUTE_CD" : "30300001" ,
"TOTAL_DIST" : "9575"
} ,
{
"BUSSTOP_ENG_NM" : "Electronics and Telecommunications Research Institute" ,
"BUSSTOP_NM" : "한국전자통신연구원" ,
"BUSSTOP_SEQ" : "25" ,
"BUSSTOP_TP" : " " ,
"BUS_NODE_ID" : "8002882" ,
"BUS_STOP_ID" : "43080" ,
"GPS_LATI" : 36.383816 ,
"GPS_LONG" : 127.36686 ,
"ROAD_NM" : " " ,
"ROAD_NM_ADDR" : " " ,
"ROUTE_CD" : "30300001" ,
"TOTAL_DIST" : "10487"
} ,
{
"BUSSTOP_ENG_NM" : "Korea Research Institute of Standards&Science" ,
"BUSSTOP_NM" : "한국표준과학연구원" ,
"BUSSTOP_SEQ" : "26" ,
"BUSSTOP_TP" : " " ,
"BUS_NODE_ID" : "8002895" ,
"BUS_STOP_ID" : "43100" ,
"GPS_LATI" : 36.385334 ,
"GPS_LONG" : 127.373116 ,
"ROAD_NM" : " " ,
"ROAD_NM_ADDR" : " " ,
"ROUTE_CD" : "30300001" ,
"TOTAL_DIST" : "11073"
} ,
{
"BUSSTOP_ENG_NM" : "Daedeok High School" ,
"BUSSTOP_NM" : "대덕고등학교" ,
"BUSSTOP_SEQ" : "27" ,
"BUSSTOP_TP" : " " ,
"BUS_NODE_ID" : "8001311" ,
"BUS_STOP_ID" : "43200" ,
"GPS_LATI" : 36.386528 ,
"GPS_LONG" : 127.37881 ,
"ROAD_NM" : "대덕대로" ,
"ROAD_NM_ADDR" : " " ,
"ROUTE_CD" : "30300001" ,
"TOTAL_DIST" : "11645"
} ,
{
"BUSSTOP_ENG_NM" : "Daedeok Tunnel Entrance" ,
"BUSSTOP_NM" : "대덕터널입구" ,
"BUSSTOP_SEQ" : "28" ,
"BUSSTOP_TP" : " " ,
"BUS_NODE_ID" : "8001326" ,
"BUS_STOP_ID" : "43230" ,
"GPS_LATI" : 36.38845 ,
"GPS_LONG" : 127.37959 ,
"ROAD_NM" : "문지로" ,
"ROAD_NM_ADDR" : " " ,
"ROUTE_CD" : "30300001" ,
"TOTAL_DIST" : "11958"
} ,
{
"BUSSTOP_ENG_NM" : "Electric Power Research Institute" ,
"BUSSTOP_NM" : "국립문화재연구원" ,
"BUSSTOP_SEQ" : "29" ,
"BUSSTOP_TP" : " " ,
"BUS_NODE_ID" : "8002529" ,
"BUS_STOP_ID" : "44010" ,
"GPS_LATI" : 36.39028 ,
"GPS_LONG" : 127.390755 ,
"ROAD_NM" : " " ,
"ROAD_NM_ADDR" : " " ,
"ROUTE_CD" : "30300001" ,
"TOTAL_DIST" : "12999"
} ,
{
"BUSSTOP_ENG_NM" : "LG Chem/Research Park" ,
"BUSSTOP_NM" : "LG화학기술연구원" ,
"BUSSTOP_SEQ" : "30" ,
"BUSSTOP_TP" : " " ,
"BUS_NODE_ID" : "8002885" ,
"BUS_STOP_ID" : "44020" ,
"GPS_LATI" : 36.390236 ,
"GPS_LONG" : 127.39686 ,
"ROAD_NM" : " " ,
"ROAD_NM_ADDR" : " " ,
"ROUTE_CD" : "30300001" ,
"TOTAL_DIST" : "13576"
} ,
{
"BUSSTOP_ENG_NM" : "Munji Samgeori(Intersection)" ,
"BUSSTOP_NM" : "문지네거리" ,
"BUSSTOP_SEQ" : "31" ,
"BUSSTOP_TP" : " " ,
"BUS_NODE_ID" : "8001658" ,
"BUS_STOP_ID" : "44070" ,
"GPS_LATI" : 36.390724 ,
"GPS_LONG" : 127.4051 ,
"ROAD_NM" : "엑스포로" ,
"ROAD_NM_ADDR" : " " ,
"ROUTE_CD" : "30300001" ,
"TOTAL_DIST" : "14382"
} ,
{
"BUSSTOP_ENG_NM" : "Expo Apts." ,
"BUSSTOP_NM" : "엑스포아파트" ,
"BUSSTOP_SEQ" : "32" ,
"BUSSTOP_TP" : " " ,
"BUS_NODE_ID" : "8002208" ,
"BUS_STOP_ID" : "44240" ,
"GPS_LATI" : 36.39646 ,
"GPS_LONG" : 127.405 ,
"ROAD_NM" : "엑스포로" ,
"ROAD_NM_ADDR" : " " ,
"ROUTE_CD" : "30300001" ,
"TOTAL_DIST" : "15018"
} ,
{
"BUSSTOP_ENG_NM" : "Jeonmin Middle School" ,
"BUSSTOP_NM" : "전민중학교" ,
"BUSSTOP_SEQ" : "33" ,
"BUSSTOP_TP" : " " ,
"BUS_NODE_ID" : "8002537" ,
"BUS_STOP_ID" : "44250" ,
"GPS_LATI" : 36.400837 ,
"GPS_LONG" : 127.40498 ,
"ROAD_NM" : " " ,
"ROAD_NM_ADDR" : " " ,
"ROUTE_CD" : "30300001" ,
"TOTAL_DIST" : "15505"
} ,
{
"BUSSTOP_ENG_NM" : "Jeonmin-dong" ,
"BUSSTOP_NM" : "태광산업중앙연구소" ,
"BUSSTOP_SEQ" : "34" ,
"BUSSTOP_TP" : " " ,
"BUS_NODE_ID" : "8002533" ,
"BUS_STOP_ID" : "44200" ,
"GPS_LATI" : 36.403587 ,
"GPS_LONG" : 127.40498 ,
"ROAD_NM" : " " ,
"ROAD_NM_ADDR" : " " ,
"ROUTE_CD" : "30300001" ,
"TOTAL_DIST" : "15810"
} ,
{
"BUSSTOP_ENG_NM" : "Jeonmin-dong" ,
"BUSSTOP_NM" : "태광산업중앙연구소" ,
"BUSSTOP_SEQ" : "35" ,
"BUSSTOP_TP" : " " ,
"BUS_NODE_ID" : "8007030" ,
"BUS_STOP_ID" : "44210" ,
"GPS_LATI" : 36.40358 ,
"GPS_LONG" : 127.40483 ,
"ROAD_NM" : " " ,
"ROAD_NM_ADDR" : " " ,
"ROUTE_CD" : "30300001" ,
"TOTAL_DIST" : "16051"
} ,
{
"BUSSTOP_ENG_NM" : "Jeonmin Middle School" ,
"BUSSTOP_NM" : "전민중학교" ,
"BUSSTOP_SEQ" : "36" ,
"BUSSTOP_TP" : " " ,
"BUS_NODE_ID" : "8002532" ,
"BUS_STOP_ID" : "44230" ,
"GPS_LATI" : 36.400772 ,
"GPS_LONG" : 127.404816 ,
"ROAD_NM" : " " ,
"ROAD_NM_ADDR" : " " ,
"ROUTE_CD" : "30300001" ,
"TOTAL_DIST" : "16363"
} ,
{
"BUSSTOP_ENG_NM" : "Sejong Apts." ,
"BUSSTOP_NM" : "세종아파트" ,
"BUSSTOP_SEQ" : "37" ,
"BUSSTOP_TP" : " " ,
"BUS_NODE_ID" : "8002026" ,
"BUS_STOP_ID" : "44180" ,
"GPS_LATI" : 36.39971 ,
"GPS_LONG" : 127.40374 ,
"ROAD_NM" : "유성대로" ,
"ROAD_NM_ADDR" : " " ,
"ROUTE_CD" : "30300001" ,
"TOTAL_DIST" : "16592"
} ,
{
"BUSSTOP_ENG_NM" : "Jeonmin-dong Community Center" ,
"BUSSTOP_NM" : "전민동주민센터" ,
"BUSSTOP_SEQ" : "38" ,
"BUSSTOP_TP" : " " ,
"BUS_NODE_ID" : "8002536" ,
"BUS_STOP_ID" : "44170" ,
"GPS_LATI" : 36.39973 ,
"GPS_LONG" : 127.40078 ,
"ROAD_NM" : " " ,
"ROAD_NM_ADDR" : " " ,
"ROUTE_CD" : "30300001" ,
"TOTAL_DIST" : "16859"
} ,
{
"BUSSTOP_ENG_NM" : "Seonbimaeul Apts." ,
"BUSSTOP_NM" : "선비마을" ,
"BUSSTOP_SEQ" : "39" ,
"BUSSTOP_TP" : " " ,
"BUS_NODE_ID" : "8001332" ,
"BUS_STOP_ID" : "44110" ,
"GPS_LATI" : 36.399727 ,
"GPS_LONG" : 127.39738 ,
"ROAD_NM" : "유성대로" ,
"ROAD_NM_ADDR" : " " ,
"ROUTE_CD" : "30300001" ,
"TOTAL_DIST" : "17163"
} ,
{
"BUSSTOP_ENG_NM" : "Daedeok Innopolis Sports Park" ,
"BUSSTOP_NM" : "대덕특구체육공원" ,
"BUSSTOP_SEQ" : "40" ,
"BUSSTOP_TP" : " " ,
"BUS_NODE_ID" : "8003088" ,
"BUS_STOP_ID" : "45850" ,
"GPS_LATI" : 36.402363 ,
"GPS_LONG" : 127.397606 ,
"ROAD_NM" : " " ,
"ROAD_NM_ADDR" : " " ,
"ROUTE_CD" : "30300001" ,
"TOTAL_DIST" : "17500"
} ,
{
"BUSSTOP_ENG_NM" : "Institute of Water and Environment" ,
"BUSSTOP_NM" : "LH연구원" ,
"BUSSTOP_SEQ" : "41" ,
"BUSSTOP_TP" : " " ,
"BUS_NODE_ID" : "8002074" ,
"BUS_STOP_ID" : "44130" ,
"GPS_LATI" : 36.40469 ,
"GPS_LONG" : 127.397675 ,
"ROAD_NM" : "유성대로" ,
"ROAD_NM_ADDR" : " " ,
"ROUTE_CD" : "30300001" ,
"TOTAL_DIST" : "17758"
} ,
{
"BUSSTOP_ENG_NM" : "Tapnip 1(il)-tong" ,
"BUSSTOP_NM" : "탑립1통" ,
"BUSSTOP_SEQ" : "42" ,
"BUSSTOP_TP" : " " ,
"BUS_NODE_ID" : "8005667" ,
"BUS_STOP_ID" : "44300" ,
"GPS_LATI" : 36.40894 ,
"GPS_LONG" : 127.39585 ,
"ROAD_NM" : " " ,
"ROAD_NM_ADDR" : " " ,
"ROUTE_CD" : "30300001" ,
"TOTAL_DIST" : "18265"
} ,
{
"BUSSTOP_ENG_NM" : "Tamnip Overpass" ,
"BUSSTOP_NM" : "탑립육교" ,
"BUSSTOP_SEQ" : "43" ,
"BUSSTOP_TP" : " " ,
"BUS_NODE_ID" : "8102776" ,
"BUS_STOP_ID" : "44410" ,
"GPS_LATI" : 36.410706 ,
"GPS_LONG" : 127.39426 ,
"ROAD_NM" : " " ,
"ROAD_NM_ADDR" : " " ,
"ROUTE_CD" : "30300001" ,
"TOTAL_DIST" : "18531"
} ,
{
"BUSSTOP_ENG_NM" : "---" ,
"BUSSTOP_NM" : "호반써밋그랜드파크" ,
"BUSSTOP_SEQ" : "44" ,
"BUSSTOP_TP" : " " ,
"BUS_NODE_ID" : "8007589" ,
"BUS_STOP_ID" : "47050" ,
"GPS_LATI" : 36.41508 ,
"GPS_LONG" : 127.39353 ,
"ROAD_NM" : " " ,
"ROAD_NM_ADDR" : " " ,
"ROUTE_CD" : "30300001" ,
"TOTAL_DIST" : "19255"
} ,
{
"BUSSTOP_ENG_NM" : "Technovalley Apts.12" ,
"BUSSTOP_NM" : "테크노밸리12단지" ,
"BUSSTOP_SEQ" : "45" ,
"BUSSTOP_TP" : " " ,
"BUS_NODE_ID" : "8002805" ,
"BUS_STOP_ID" : "47090" ,
"GPS_LATI" : 36.417316 ,
"GPS_LONG" : 127.39279 ,
"ROAD_NM" : " " ,
"ROAD_NM_ADDR" : " " ,
"ROUTE_CD" : "30300001" ,
"TOTAL_DIST" : "19624"
} ,
{
"BUSSTOP_ENG_NM" : "Technovalley Apts.6" ,
"BUSSTOP_NM" : "테크노밸리6단지" ,
"BUSSTOP_SEQ" : "46" ,
"BUSSTOP_TP" : " " ,
"BUS_NODE_ID" : "8005738" ,
"BUS_STOP_ID" : "47110" ,
"GPS_LATI" : 36.418785 ,
"GPS_LONG" : 127.38794 ,
"ROAD_NM" : " " ,
"ROAD_NM_ADDR" : " " ,
"ROUTE_CD" : "30300001" ,
"TOTAL_DIST" : "20087"
} ,
{
"BUSSTOP_ENG_NM" : "Technovalley Apts.4" ,
"BUSSTOP_NM" : "테크노밸리5단지" ,
"BUSSTOP_SEQ" : "47" ,
"BUSSTOP_TP" : " " ,
"BUS_NODE_ID" : "8001305" ,
"BUS_STOP_ID" : "44540" ,
"GPS_LATI" : 36.420033 ,
"GPS_LONG" : 127.38616 ,
"ROAD_NM" : "테크노4로" ,
"ROAD_NM_ADDR" : " " ,
"ROUTE_CD" : "30300001" ,
"TOTAL_DIST" : "20450"
} ,
{
"BUSSTOP_ENG_NM" : "Donghwa Middle School" ,
"BUSSTOP_NM" : "관평중학교" ,
"BUSSTOP_SEQ" : "48" ,
"BUSSTOP_TP" : " " ,
"BUS_NODE_ID" : "8001555" ,
"BUS_STOP_ID" : "44560" ,
"GPS_LATI" : 36.42417 ,
"GPS_LONG" : 127.38874 ,
"ROAD_NM" : "테크노4로" ,
"ROAD_NM_ADDR" : " " ,
"ROUTE_CD" : "30300001" ,
"TOTAL_DIST" : "20964"
} ,
{
"BUSSTOP_ENG_NM" : "Subyeon(Waterside) Park" ,
"BUSSTOP_NM" : "수변공원" ,
"BUSSTOP_SEQ" : "49" ,
"BUSSTOP_TP" : " " ,
"BUS_NODE_ID" : "8005508" ,
"BUS_STOP_ID" : "44670" ,
"GPS_LATI" : 36.425644 ,
"GPS_LONG" : 127.39289 ,
"ROAD_NM" : " " ,
"ROAD_NM_ADDR" : " " ,
"ROUTE_CD" : "30300001" ,
"TOTAL_DIST" : "21544"
} ,
{
"BUSSTOP_ENG_NM" : "---" ,
"BUSSTOP_NM" : "현대아울렛남문" ,
"BUSSTOP_SEQ" : "50" ,
"BUSSTOP_TP" : " " ,
"BUS_NODE_ID" : "8007189" ,
"BUS_STOP_ID" : "46280" ,
"GPS_LATI" : 36.42222 ,
"GPS_LONG" : 127.39723 ,
"ROAD_NM" : " " ,
"ROAD_NM_ADDR" : " " ,
"ROUTE_CD" : "30300001" ,
"TOTAL_DIST" : "22160"
} ,
{
"BUSSTOP_ENG_NM" : "---" ,
"BUSSTOP_NM" : "한텍" ,
"BUSSTOP_SEQ" : "51" ,
"BUSSTOP_TP" : " " ,
"BUS_NODE_ID" : "8007222" ,
"BUS_STOP_ID" : "82310" ,
"GPS_LATI" : 36.42202 ,
"GPS_LONG" : 127.40115 ,
"ROAD_NM" : " " ,
"ROAD_NM_ADDR" : " " ,
"ROUTE_CD" : "30300001" ,
"TOTAL_DIST" : "22576"
} ,
{
"BUSSTOP_ENG_NM" : "---" ,
"BUSSTOP_NM" : "대전테크노파크" ,
"BUSSTOP_SEQ" : "52" ,
"BUSSTOP_TP" : " " ,
"BUS_NODE_ID" : "8007224" ,
"BUS_STOP_ID" : "82330" ,
"GPS_LATI" : 36.42062 ,
"GPS_LONG" : 127.40433 ,
"ROAD_NM" : " " ,
"ROAD_NM_ADDR" : " " ,
"ROUTE_CD" : "30300001" ,
"TOTAL_DIST" : "22901"
} ,
{
"BUSSTOP_ENG_NM" : "---" ,
"BUSSTOP_NM" : "조은정밀" ,
"BUSSTOP_SEQ" : "53" ,
"BUSSTOP_TP" : " " ,
"BUS_NODE_ID" : "8007226" ,
"BUS_STOP_ID" : "82350" ,
"GPS_LATI" : 36.416348 ,
"GPS_LONG" : 127.40682 ,
"ROAD_NM" : " " ,
"ROAD_NM_ADDR" : " " ,
"ROUTE_CD" : "30300001" ,
"TOTAL_DIST" : "23476"
} ,
{
"BUSSTOP_ENG_NM" : "---" ,
"BUSSTOP_NM" : "청벽산공원" ,
"BUSSTOP_SEQ" : "54" ,
"BUSSTOP_TP" : "2" ,
"BUS_NODE_ID" : "8007228" ,
"BUS_STOP_ID" : "82370" ,
"GPS_LATI" : 36.413357 ,
"GPS_LONG" : 127.40698 ,
"ROAD_NM" : " " ,
"ROAD_NM_ADDR" : " " ,
"ROUTE_CD" : "30300001" ,
"TOTAL_DIST" : "23828"
} ,
{
"BUSSTOP_ENG_NM" : "---" ,
"BUSSTOP_NM" : "조은정밀" ,
"BUSSTOP_SEQ" : "55" ,
"BUSSTOP_TP" : " " ,
"BUS_NODE_ID" : "8007227" ,
"BUS_STOP_ID" : "82360" ,
"GPS_LATI" : 36.415512 ,
"GPS_LONG" : 127.40707 ,
"ROAD_NM" : " " ,
"ROAD_NM_ADDR" : " " ,
"ROUTE_CD" : "30300001" ,
"TOTAL_DIST" : "24066"
} ,
{
"BUSSTOP_ENG_NM" : "---" ,
"BUSSTOP_NM" : "대전테크노파크" ,
"BUSSTOP_SEQ" : "56" ,
"BUSSTOP_TP" : " " ,
"BUS_NODE_ID" : "8007225" ,
"BUS_STOP_ID" : "82340" ,
"GPS_LATI" : 36.42086 ,
"GPS_LONG" : 127.40454 ,
"ROAD_NM" : " " ,
"ROAD_NM_ADDR" : " " ,
"ROUTE_CD" : "30300001" ,
"TOTAL_DIST" : "24757"
} ,
{
"BUSSTOP_ENG_NM" : "---" ,
"BUSSTOP_NM" : "한텍" ,
"BUSSTOP_SEQ" : "57" ,
"BUSSTOP_TP" : " " ,
"BUS_NODE_ID" : "8007223" ,
"BUS_STOP_ID" : "82320" ,
"GPS_LATI" : 36.422043 ,
"GPS_LONG" : 127.40179 ,
"ROAD_NM" : " " ,
"ROAD_NM_ADDR" : " " ,
"ROUTE_CD" : "30300001" ,
"TOTAL_DIST" : "25036"
} ,
{
"BUSSTOP_ENG_NM" : "Subyeon(Waterside) Park" ,
"BUSSTOP_NM" : "수변공원" ,
"BUSSTOP_SEQ" : "58" ,
"BUSSTOP_TP" : " " ,
"BUS_NODE_ID" : "8005507" ,
"BUS_STOP_ID" : "44680" ,
"GPS_LATI" : 36.425766 ,
"GPS_LONG" : 127.39311 ,
"ROAD_NM" : " " ,
"ROAD_NM_ADDR" : " " ,
"ROUTE_CD" : "30300001" ,
"TOTAL_DIST" : "26098"
} ,
{
"BUSSTOP_ENG_NM" : "Gwanpyeong Middle School" ,
"BUSSTOP_NM" : "관평중학교" ,
"BUSSTOP_SEQ" : "59" ,
"BUSSTOP_TP" : " " ,
"BUS_NODE_ID" : "8001556" ,
"BUS_STOP_ID" : "44550" ,
"GPS_LATI" : 36.423775 ,
"GPS_LONG" : 127.38831 ,
"ROAD_NM" : "테크노4로" ,
"ROAD_NM_ADDR" : " " ,
"ROUTE_CD" : "30300001" ,
"TOTAL_DIST" : "26750"
} ,
{
"BUSSTOP_ENG_NM" : "Technovalley Apts.4" ,
"BUSSTOP_NM" : "테크노밸리4단지" ,
"BUSSTOP_SEQ" : "60" ,
"BUSSTOP_TP" : " " ,
"BUS_NODE_ID" : "8001306" ,
"BUS_STOP_ID" : "44530" ,
"GPS_LATI" : 36.42006 ,
"GPS_LONG" : 127.38592 ,
"ROAD_NM" : "테크노4로" ,
"ROAD_NM_ADDR" : " " ,
"ROUTE_CD" : "30300001" ,
"TOTAL_DIST" : "27214"
} ,
{
"BUSSTOP_ENG_NM" : "Technovalley Apts.6" ,
"BUSSTOP_NM" : "테크노밸리6단지" ,
"BUSSTOP_SEQ" : "61" ,
"BUSSTOP_TP" : " " ,
"BUS_NODE_ID" : "8007047" ,
"BUS_STOP_ID" : "47100" ,
"GPS_LATI" : 36.41857 ,
"GPS_LONG" : 127.38797 ,
"ROAD_NM" : " " ,
"ROAD_NM_ADDR" : " " ,
"ROUTE_CD" : "30300001" ,
"TOTAL_DIST" : "27592"
} ,
{
"BUSSTOP_ENG_NM" : "Technovalley Apts.12" ,
"BUSSTOP_NM" : "테크노밸리12단지" ,
"BUSSTOP_SEQ" : "62" ,
"BUSSTOP_TP" : " " ,
"BUS_NODE_ID" : "8002804" ,
"BUS_STOP_ID" : "47120" ,
"GPS_LATI" : 36.417107 ,
"GPS_LONG" : 127.39259 ,
"ROAD_NM" : " " ,
"ROAD_NM_ADDR" : " " ,
"ROUTE_CD" : "30300001" ,
"TOTAL_DIST" : "28038"
} ,
{
"BUSSTOP_ENG_NM" : "---" ,
"BUSSTOP_NM" : "호반써밋그랜드파크" ,
"BUSSTOP_SEQ" : "63" ,
"BUSSTOP_TP" : " " ,
"BUS_NODE_ID" : "8007590" ,
"BUS_STOP_ID" : "47040" ,
"GPS_LATI" : 36.415234 ,
"GPS_LONG" : 127.3934 ,
"ROAD_NM" : " " ,
"ROAD_NM_ADDR" : " " ,
"ROUTE_CD" : "30300001" ,
"TOTAL_DIST" : "28408"
} ,
{
"BUSSTOP_ENG_NM" : "Tamnip Overpass" ,
"BUSSTOP_NM" : "탑립육교" ,
"BUSSTOP_SEQ" : "64" ,
"BUSSTOP_TP" : " " ,
"BUS_NODE_ID" : "8102775" ,
"BUS_STOP_ID" : "44400" ,
"GPS_LATI" : 36.410786 ,
"GPS_LONG" : 127.39411 ,
"ROAD_NM" : " " ,
"ROAD_NM_ADDR" : " " ,
"ROUTE_CD" : "30300001" ,
"TOTAL_DIST" : "29135"
} ,
{
"BUSSTOP_ENG_NM" : "Tapnip 1(il)-tong / Nonghyup Warehouse" ,
"BUSSTOP_NM" : "탑립1통" ,
"BUSSTOP_SEQ" : "65" ,
"BUSSTOP_TP" : " " ,
"BUS_NODE_ID" : "8002767" ,
"BUS_STOP_ID" : "44290" ,
"GPS_LATI" : 36.40883 ,
"GPS_LONG" : 127.39574 ,
"ROAD_NM" : " " ,
"ROAD_NM_ADDR" : " " ,
"ROUTE_CD" : "30300001" ,
"TOTAL_DIST" : "29414"
} ,
{
"BUSSTOP_ENG_NM" : "Water Resources Corporation Training Institute" ,
"BUSSTOP_NM" : "k-water인재개발원" ,
"BUSSTOP_SEQ" : "66" ,
"BUSSTOP_TP" : " " ,
"BUS_NODE_ID" : "8002073" ,
"BUS_STOP_ID" : "44120" ,
"GPS_LATI" : 36.405052 ,
"GPS_LONG" : 127.397545 ,
"ROAD_NM" : "유성대로" ,
"ROAD_NM_ADDR" : " " ,
"ROUTE_CD" : "30300001" ,
"TOTAL_DIST" : "29884"
} ,
{
"BUSSTOP_ENG_NM" : "Daedeok Innopolis Sports Park" ,
"BUSSTOP_NM" : "대덕특구체육공원" ,
"BUSSTOP_SEQ" : "67" ,
"BUSSTOP_TP" : " " ,
"BUS_NODE_ID" : "8003087" ,
"BUS_STOP_ID" : "45840" ,
"GPS_LATI" : 36.403206 ,
"GPS_LONG" : 127.39759 ,
"ROAD_NM" : " " ,
"ROAD_NM_ADDR" : " " ,
"ROUTE_CD" : "30300001" ,
"TOTAL_DIST" : "30089"
} ,
{
"BUSSTOP_ENG_NM" : "Samsung Bluish Apts." ,
"BUSSTOP_NM" : "삼성푸른아파트" ,
"BUSSTOP_SEQ" : "68" ,
"BUSSTOP_TP" : " " ,
"BUS_NODE_ID" : "8001331" ,
"BUS_STOP_ID" : "44100" ,
"GPS_LATI" : 36.39953 ,
"GPS_LONG" : 127.39743 ,
"ROAD_NM" : "유성대로" ,
"ROAD_NM_ADDR" : " " ,
"ROUTE_CD" : "30300001" ,
"TOTAL_DIST" : "30522"
} ,
{
"BUSSTOP_ENG_NM" : "Jeonmin-dong Community Center" ,
"BUSSTOP_NM" : "전민동주민센터" ,
"BUSSTOP_SEQ" : "69" ,
"BUSSTOP_TP" : " " ,
"BUS_NODE_ID" : "8002535" ,
"BUS_STOP_ID" : "44160" ,
"GPS_LATI" : 36.399548 ,
"GPS_LONG" : 127.399574 ,
"ROAD_NM" : " " ,
"ROAD_NM_ADDR" : " " ,
"ROUTE_CD" : "30300001" ,
"TOTAL_DIST" : "30715"
} ,
{
"BUSSTOP_ENG_NM" : "Jeonmin Middle School" ,
"BUSSTOP_NM" : "전민중학교" ,
"BUSSTOP_SEQ" : "70" ,
"BUSSTOP_TP" : " " ,
"BUS_NODE_ID" : "8002537" ,
"BUS_STOP_ID" : "44250" ,
"GPS_LATI" : 36.400837 ,
"GPS_LONG" : 127.40498 ,
"ROAD_NM" : " " ,
"ROAD_NM_ADDR" : " " ,
"ROUTE_CD" : "30300001" ,
"TOTAL_DIST" : "31326"
} ,
{
"BUSSTOP_ENG_NM" : "Jeonmin-dong" ,
"BUSSTOP_NM" : "태광산업중앙연구소" ,
"BUSSTOP_SEQ" : "71" ,
"BUSSTOP_TP" : " " ,
"BUS_NODE_ID" : "8002533" ,
"BUS_STOP_ID" : "44200" ,
"GPS_LATI" : 36.403587 ,
"GPS_LONG" : 127.40498 ,
"ROAD_NM" : " " ,
"ROAD_NM_ADDR" : " " ,
"ROUTE_CD" : "30300001" ,
"TOTAL_DIST" : "31631"
} ,
{
"BUSSTOP_ENG_NM" : "Jeonmin-dong" ,
"BUSSTOP_NM" : "태광산업중앙연구소" ,
"BUSSTOP_SEQ" : "72" ,
"BUSSTOP_TP" : " " ,
"BUS_NODE_ID" : "8007030" ,
"BUS_STOP_ID" : "44210" ,
"GPS_LATI" : 36.40358 ,
"GPS_LONG" : 127.40483 ,
"ROAD_NM" : " " ,
"ROAD_NM_ADDR" : " " ,
"ROUTE_CD" : "30300001" ,
"TOTAL_DIST" : "31872"
} ,
{
"BUSSTOP_ENG_NM" : "Jeonmin Middle School" ,
"BUSSTOP_NM" : "전민중학교" ,
"BUSSTOP_SEQ" : "73" ,
"BUSSTOP_TP" : " " ,
"BUS_NODE_ID" : "8002532" ,
"BUS_STOP_ID" : "44230" ,
"GPS_LATI" : 36.400772 ,
"GPS_LONG" : 127.404816 ,
"ROAD_NM" : " " ,
"ROAD_NM_ADDR" : " " ,
"ROUTE_CD" : "30300001" ,
"TOTAL_DIST" : "32184"
} ,
{
"BUSSTOP_ENG_NM" : "Expo Apts." ,
"BUSSTOP_NM" : "엑스포아파트" ,
"BUSSTOP_SEQ" : "74" ,
"BUSSTOP_TP" : " " ,
"BUS_NODE_ID" : "8002531" ,
"BUS_STOP_ID" : "44220" ,
"GPS_LATI" : 36.397938 ,
"GPS_LONG" : 127.404785 ,
"ROAD_NM" : " " ,
"ROAD_NM_ADDR" : " " ,
"ROUTE_CD" : "30300001" ,
"TOTAL_DIST" : "32499"
} ,
{
"BUSSTOP_ENG_NM" : "Munji Elementary School Entrance" ,
"BUSSTOP_NM" : "문지초등학교입구" ,
"BUSSTOP_SEQ" : "75" ,
"BUSSTOP_TP" : " " ,
"BUS_NODE_ID" : "8002207" ,
"BUS_STOP_ID" : "44060" ,
"GPS_LATI" : 36.396286 ,
"GPS_LONG" : 127.404785 ,
"ROAD_NM" : "엑스포로" ,
"ROAD_NM_ADDR" : " " ,
"ROUTE_CD" : "30300001" ,
"TOTAL_DIST" : "32682"
} ,
{
"BUSSTOP_ENG_NM" : "---" ,
"BUSSTOP_NM" : "해링턴아파트" ,
"BUSSTOP_SEQ" : "76" ,
"BUSSTOP_TP" : " " ,
"BUS_NODE_ID" : "8007394" ,
"BUS_STOP_ID" : "46500" ,
"GPS_LATI" : 36.392475 ,
"GPS_LONG" : 127.40487 ,
"ROAD_NM" : " " ,
"ROAD_NM_ADDR" : " " ,
"ROUTE_CD" : "30300001" ,
"TOTAL_DIST" : "33105"
} ,
{
"BUSSTOP_ENG_NM" : "Munji Samgeori(Intersection)" ,
"BUSSTOP_NM" : "문지네거리" ,
"BUSSTOP_SEQ" : "77" ,
"BUSSTOP_TP" : " " ,
"BUS_NODE_ID" : "8001657" ,
"BUS_STOP_ID" : "44040" ,
"GPS_LATI" : 36.390182 ,
"GPS_LONG" : 127.40303 ,
"ROAD_NM" : "문지로" ,
"ROAD_NM_ADDR" : " " ,
"ROUTE_CD" : "30300001" ,
"TOTAL_DIST" : "33550"
} ,
{
"BUSSTOP_ENG_NM" : "LG Chem/Research Park" ,
"BUSSTOP_NM" : "KAIST문지캠퍼스" ,
"BUSSTOP_SEQ" : "78" ,
"BUSSTOP_TP" : " " ,
"BUS_NODE_ID" : "8002884" ,
"BUS_STOP_ID" : "44030" ,
"GPS_LATI" : 36.390175 ,
"GPS_LONG" : 127.40006 ,
"ROAD_NM" : " " ,
"ROAD_NM_ADDR" : " " ,
"ROUTE_CD" : "30300001" ,
"TOTAL_DIST" : "33815"
} ,
{
"BUSSTOP_ENG_NM" : "Electric Power Research Institute" ,
"BUSSTOP_NM" : "전력연구원" ,
"BUSSTOP_SEQ" : "79" ,
"BUSSTOP_TP" : " " ,
"BUS_NODE_ID" : "8002530" ,
"BUS_STOP_ID" : "44000" ,
"GPS_LATI" : 36.39053 ,
"GPS_LONG" : 127.39064 ,
"ROAD_NM" : " " ,
"ROAD_NM_ADDR" : " " ,
"ROUTE_CD" : "30300001" ,
"TOTAL_DIST" : "34688"
} ,
{
"BUSSTOP_ENG_NM" : "Daedeok High School" ,
"BUSSTOP_NM" : "대덕고등학교" ,
"BUSSTOP_SEQ" : "80" ,
"BUSSTOP_TP" : " " ,
"BUS_NODE_ID" : "8001312" ,
"BUS_STOP_ID" : "43160" ,
"GPS_LATI" : 36.386528 ,
"GPS_LONG" : 127.37846 ,
"ROAD_NM" : "대덕대로" ,
"ROAD_NM_ADDR" : " " ,
"ROUTE_CD" : "30300001" ,
"TOTAL_DIST" : "36024"
} ,
{
"BUSSTOP_ENG_NM" : "Daedeok Innopolis Negeori(Intersection)" ,
"BUSSTOP_NM" : "연구단지네거리" ,
"BUSSTOP_SEQ" : "81" ,
"BUSSTOP_TP" : " " ,
"BUS_NODE_ID" : "8001329" ,
"BUS_STOP_ID" : "43140" ,
"GPS_LATI" : 36.385826 ,
"GPS_LONG" : 127.37734 ,
"ROAD_NM" : "가정로" ,
"ROAD_NM_ADDR" : " " ,
"ROUTE_CD" : "30300001" ,
"TOTAL_DIST" : "36220"
} ,
{
"BUSSTOP_ENG_NM" : "Korea Research Institute of Standards&Science" ,
"BUSSTOP_NM" : "한국표준과학연구원" ,
"BUSSTOP_SEQ" : "82" ,
"BUSSTOP_TP" : " " ,
"BUS_NODE_ID" : "8002896" ,
"BUS_STOP_ID" : "43120" ,
"GPS_LATI" : 36.38567 ,
"GPS_LONG" : 127.373116 ,
"ROAD_NM" : " " ,
"ROAD_NM_ADDR" : " " ,
"ROUTE_CD" : "30300001" ,
"TOTAL_DIST" : "36597"
} ,
{
"BUSSTOP_ENG_NM" : "Electronics and Telecommunications Research Institute" ,
"BUSSTOP_NM" : "과학기술연합대학원(UST)" ,
"BUSSTOP_SEQ" : "83" ,
"BUSSTOP_TP" : " " ,
"BUS_NODE_ID" : "8002883" ,
"BUS_STOP_ID" : "43090" ,
"GPS_LATI" : 36.38417 ,
"GPS_LONG" : 127.36712 ,
"ROAD_NM" : " " ,
"ROAD_NM_ADDR" : " " ,
"ROUTE_CD" : "30300001" ,
"TOTAL_DIST" : "37168"
} ,
{
"BUSSTOP_ENG_NM" : "Dareumgogae Samgeori(Intersection)" ,
"BUSSTOP_NM" : "한국연구재단" ,
"BUSSTOP_SEQ" : "84" ,
"BUSSTOP_TP" : " " ,
"BUS_NODE_ID" : "8001293" ,
"BUS_STOP_ID" : "43460" ,
"GPS_LATI" : 36.385647 ,
"GPS_LONG" : 127.363686 ,
"ROAD_NM" : "가정북로" ,
"ROAD_NM_ADDR" : " " ,
"ROUTE_CD" : "30300001" ,
"TOTAL_DIST" : "37588"
} ,
{
"BUSSTOP_ENG_NM" : "Daedeok University" ,
"BUSSTOP_NM" : "대덕대학" ,
"BUSSTOP_SEQ" : "85" ,
"BUSSTOP_TP" : " " ,
"BUS_NODE_ID" : "8001319" ,
"BUS_STOP_ID" : "43430" ,
"GPS_LATI" : 36.390736 ,
"GPS_LONG" : 127.36219 ,
"ROAD_NM" : "가정북로" ,
"ROAD_NM_ADDR" : " " ,
"ROUTE_CD" : "30300001" ,
"TOTAL_DIST" : "38172"
} ,
{
"BUSSTOP_ENG_NM" : "Small and Medium Business Administration" ,
"BUSSTOP_NM" : "중소벤처기업청" ,
"BUSSTOP_SEQ" : "86" ,
"BUSSTOP_TP" : " " ,
"BUS_NODE_ID" : "8002626" ,
"BUS_STOP_ID" : "43390" ,
"GPS_LATI" : 36.392178 ,
"GPS_LONG" : 127.359505 ,
"ROAD_NM" : " " ,
"ROAD_NM_ADDR" : " " ,
"ROUTE_CD" : "30300001" ,
"TOTAL_DIST" : "38474"
} ,
{
"BUSSTOP_ENG_NM" : "Institute of Machinery&Materials" ,
"BUSSTOP_NM" : "한국기계연구원" ,
"BUSSTOP_SEQ" : "87" ,
"BUSSTOP_TP" : " " ,
"BUS_NODE_ID" : "8002874" ,
"BUS_STOP_ID" : "43370" ,
"GPS_LATI" : 36.394764 ,
"GPS_LONG" : 127.35649 ,
"ROAD_NM" : " " ,
"ROAD_NM_ADDR" : " " ,
"ROUTE_CD" : "30300001" ,
"TOTAL_DIST" : "38922"
} ,
{
"BUSSTOP_ENG_NM" : "Arirang Bossam Entrance" ,
"BUSSTOP_NM" : "아리랑보쌈앞" ,
"BUSSTOP_SEQ" : "88" ,
"BUSSTOP_TP" : " " ,
"BUS_NODE_ID" : "8005655" ,
"BUS_STOP_ID" : "81320" ,
"GPS_LATI" : 36.394547 ,
"GPS_LONG" : 127.35264 ,
"ROAD_NM" : " " ,
"ROAD_NM_ADDR" : " " ,
"ROUTE_CD" : "30300001" ,
"TOTAL_DIST" : "39369"
} ,
{
"BUSSTOP_ENG_NM" : "Aegyeong Research Institute" ,
"BUSSTOP_NM" : "애경연구원" ,
"BUSSTOP_SEQ" : "89" ,
"BUSSTOP_TP" : " " ,
"BUS_NODE_ID" : "8005662" ,
"BUS_STOP_ID" : "81290" ,
"GPS_LATI" : 36.392185 ,
"GPS_LONG" : 127.350945 ,
"ROAD_NM" : " " ,
"ROAD_NM_ADDR" : " " ,
"ROUTE_CD" : "30300001" ,
"TOTAL_DIST" : "39615"
} ,
{
"BUSSTOP_ENG_NM" : "Tandong Nonghyup bank" ,
"BUSSTOP_NM" : "탄동농협" ,
"BUSSTOP_SEQ" : "90" ,
"BUSSTOP_TP" : " " ,
"BUS_NODE_ID" : "8005663" ,
"BUS_STOP_ID" : "81270" ,
"GPS_LATI" : 36.390903 ,
"GPS_LONG" : 127.34964 ,
"ROAD_NM" : " " ,
"ROAD_NM_ADDR" : " " ,
"ROUTE_CD" : "30300001" ,
"TOTAL_DIST" : "39800"
} ,
{
"BUSSTOP_ENG_NM" : "Sinseong-dong Community Center" ,
"BUSSTOP_NM" : "신성동주민센터" ,
"BUSSTOP_SEQ" : "91" ,
"BUSSTOP_TP" : " " ,
"BUS_NODE_ID" : "8005783" ,
"BUS_STOP_ID" : "81230" ,
"GPS_LATI" : 36.3893 ,
"GPS_LONG" : 127.348076 ,
"ROAD_NM" : " " ,
"ROAD_NM_ADDR" : " " ,
"ROUTE_CD" : "30300001" ,
"TOTAL_DIST" : "40024"
} ,
{
"BUSSTOP_ENG_NM" : "Lucky Hana Apts." ,
"BUSSTOP_NM" : "럭키하나아파트" ,
"BUSSTOP_SEQ" : "92" ,
"BUSSTOP_TP" : " " ,
"BUS_NODE_ID" : "8005664" ,
"BUS_STOP_ID" : "81170" ,
"GPS_LATI" : 36.385933 ,
"GPS_LONG" : 127.347855 ,
"ROAD_NM" : " " ,
"ROAD_NM_ADDR" : " " ,
"ROUTE_CD" : "30300001" ,
"TOTAL_DIST" : "40460"
} ,
{
"BUSSTOP_ENG_NM" : "Yuseong Senior Welfare Center" ,
"BUSSTOP_NM" : "유성구노인복지관" ,
"BUSSTOP_SEQ" : "93" ,
"BUSSTOP_TP" : " " ,
"BUS_NODE_ID" : "8002397" ,
"BUS_STOP_ID" : "42940" ,
"GPS_LATI" : 36.38425 ,
"GPS_LONG" : 127.345634 ,
"ROAD_NM" : " " ,
"ROAD_NM_ADDR" : " " ,
"ROUTE_CD" : "30300001" ,
"TOTAL_DIST" : "40862"
} ,
{
"BUSSTOP_ENG_NM" : "Research Institute of Space Communications" ,
"BUSSTOP_NM" : "우주통신연구소" ,
"BUSSTOP_SEQ" : "94" ,
"BUSSTOP_TP" : " " ,
"BUS_NODE_ID" : "8002348" ,
"BUS_STOP_ID" : "42570" ,
"GPS_LATI" : 36.377274 ,
"GPS_LONG" : 127.34237 ,
"ROAD_NM" : " " ,
"ROAD_NM_ADDR" : " " ,
"ROUTE_CD" : "30300001" ,
"TOTAL_DIST" : "41793"
} ,
{
"BUSSTOP_ENG_NM" : "Chungnam National University Playground" ,
"BUSSTOP_NM" : "북대전세무서/보훈요양원" ,
"BUSSTOP_SEQ" : "95" ,
"BUSSTOP_TP" : " " ,
"BUS_NODE_ID" : "8002740" ,
"BUS_STOP_ID" : "42550" ,
"GPS_LATI" : 36.374523 ,
"GPS_LONG" : 127.34144 ,
"ROAD_NM" : " " ,
"ROAD_NM_ADDR" : " " ,
"ROUTE_CD" : "30300001" ,
"TOTAL_DIST" : "42110"
} ,
{
"BUSSTOP_ENG_NM" : "Chungnam National University Back Gate" ,
"BUSSTOP_NM" : "충대서문" ,
"BUSSTOP_SEQ" : "96" ,
"BUSSTOP_TP" : " " ,
"BUS_NODE_ID" : "8002742" ,
"BUS_STOP_ID" : "42540" ,
"GPS_LATI" : 36.37055 ,
"GPS_LONG" : 127.34012 ,
"ROAD_NM" : " " ,
"ROAD_NM_ADDR" : " " ,
"ROUTE_CD" : "30300001" ,
"TOTAL_DIST" : "42567"
} ,
{
"BUSSTOP_ENG_NM" : "Gung-dong Negeori(Intersection)" ,
"BUSSTOP_NM" : "궁동교" ,
"BUSSTOP_SEQ" : "97" ,
"BUSSTOP_TP" : " " ,
"BUS_NODE_ID" : "8001196" ,
"BUS_STOP_ID" : "42130" ,
"GPS_LATI" : 36.36625 ,
"GPS_LONG" : 127.33871 ,
"ROAD_NM" : "유성대로" ,
"ROAD_NM_ADDR" : " " ,
"ROUTE_CD" : "30300001" ,
"TOTAL_DIST" : "43061"
} ,
{
"BUSSTOP_ENG_NM" : "Gung-dong Negeori(Intersection)" ,
"BUSSTOP_NM" : "장대네거리" ,
"BUSSTOP_SEQ" : "98" ,
"BUSSTOP_TP" : " " ,
"BUS_NODE_ID" : "8001194" ,
"BUS_STOP_ID" : "42120" ,
"GPS_LATI" : 36.363605 ,
"GPS_LONG" : 127.3376 ,
"ROAD_NM" : "유성대로" ,
"ROAD_NM_ADDR" : " " ,
"ROUTE_CD" : "30300001" ,
"TOTAL_DIST" : "43375"
} ,
{
"BUSSTOP_ENG_NM" : "Yuseong Express Bus Terminal" ,
"BUSSTOP_NM" : "유성고속터미널" ,
"BUSSTOP_SEQ" : "99" ,
"BUSSTOP_TP" : " " ,
"BUS_NODE_ID" : "8002395" ,
"BUS_STOP_ID" : "42100" ,
"GPS_LATI" : 36.358776 ,
"GPS_LONG" : 127.33625 ,
"ROAD_NM" : " " ,
"ROAD_NM_ADDR" : " " ,
"ROUTE_CD" : "30300001" ,
"TOTAL_DIST" : "43962"
} ,
{
"BUSSTOP_ENG_NM" : "Riviera Hotel" ,
"BUSSTOP_NM" : "봉명동우체국" ,
"BUSSTOP_SEQ" : "100" ,
"BUSSTOP_TP" : " " ,
"BUS_NODE_ID" : "8001590" ,
"BUS_STOP_ID" : "41210" ,
"GPS_LATI" : 36.35465 ,
"GPS_LONG" : 127.33812 ,
"ROAD_NM" : "계룡로" ,
"ROAD_NM_ADDR" : " " ,
"ROUTE_CD" : "30300001" ,
"TOTAL_DIST" : "44509"
} ,
{
"BUSSTOP_ENG_NM" : "Yuseong Spa Station Exit 7" ,
"BUSSTOP_NM" : "유성온천역7번출구" ,
"BUSSTOP_SEQ" : "101" ,
"BUSSTOP_TP" : " " ,
"BUS_NODE_ID" : "8002412" ,
"BUS_STOP_ID" : "41330" ,
"GPS_LATI" : 36.354378 ,
"GPS_LONG" : 127.34202 ,
"ROAD_NM" : " " ,
"ROAD_NM_ADDR" : " " ,
"ROUTE_CD" : "30300001" ,
"TOTAL_DIST" : "44912"
} ,
{
"BUSSTOP_ENG_NM" : "Hongin Hotel" ,
"BUSSTOP_NM" : "온천교" ,
"BUSSTOP_SEQ" : "102" ,
"BUSSTOP_TP" : " " ,
"BUS_NODE_ID" : "8002997" ,
"BUS_STOP_ID" : "41360" ,
"GPS_LATI" : 36.35811 ,
"GPS_LONG" : 127.34342 ,
"ROAD_NM" : " " ,
"ROAD_NM_ADDR" : " " ,
"ROUTE_CD" : "30300001" ,
"TOTAL_DIST" : "45351"
} ,
{
"BUSSTOP_ENG_NM" : "Chungnam National University" ,
"BUSSTOP_NM" : "충남대학교" ,
"BUSSTOP_SEQ" : "103" ,
"BUSSTOP_TP" : " " ,
"BUS_NODE_ID" : "8005516" ,
"BUS_STOP_ID" : "42610" ,
"GPS_LATI" : 36.360374 ,
"GPS_LONG" : 127.34432 ,
"ROAD_NM" : " " ,
"ROAD_NM_ADDR" : " " ,
"ROUTE_CD" : "30300001" ,
"TOTAL_DIST" : "45614"
} ,
{
"BUSSTOP_ENG_NM" : "Gung-dong" ,
"BUSSTOP_NM" : "궁동" ,
"BUSSTOP_SEQ" : "104" ,
"BUSSTOP_TP" : " " ,
"BUS_NODE_ID" : "8001192" ,
"BUS_STOP_ID" : "42690" ,
"GPS_LATI" : 36.36067 ,
"GPS_LONG" : 127.34951 ,
"ROAD_NM" : "대학로" ,
"ROAD_NM_ADDR" : " " ,
"ROUTE_CD" : "30300001" ,
"TOTAL_DIST" : "46295"
} ,
{
"BUSSTOP_ENG_NM" : "Hanbit Apts." ,
"BUSSTOP_NM" : "한빛아파트" ,
"BUSSTOP_SEQ" : "105" ,
"BUSSTOP_TP" : " " ,
"BUS_NODE_ID" : "8002939" ,
"BUS_STOP_ID" : "42730" ,
"GPS_LATI" : 36.36223 ,
"GPS_LONG" : 127.35318 ,
"ROAD_NM" : " " ,
"ROAD_NM_ADDR" : " " ,
"ROUTE_CD" : "30300001" ,
"TOTAL_DIST" : "46880"
} ,
{
"BUSSTOP_ENG_NM" : "Chungnam National University, College of Agricultural College Terminal" ,
"BUSSTOP_NM" : "충대농대종점" ,
"BUSSTOP_SEQ" : "106" ,
"BUSSTOP_TP" : "3" ,
"BUS_NODE_ID" : "8002737" ,
"BUS_STOP_ID" : "42750" ,
"GPS_LATI" : 36.36593 ,
"GPS_LONG" : 127.351974 ,
"ROAD_NM" : " " ,
"ROAD_NM_ADDR" : " " ,
"ROUTE_CD" : "30300001" ,
"TOTAL_DIST" : "47315"
} ,
{
"BUSSTOP_ENG_NM" : "Bongsan-dong" ,
"BUSSTOP_NM" : "봉산동기점" ,
"BUSSTOP_SEQ" : "1" ,
"BUSSTOP_TP" : "1" ,
"BUS_NODE_ID" : "8001783" ,
"BUS_STOP_ID" : "44490" ,
"GPS_LATI" : 36.448254 ,
"GPS_LONG" : 127.384605 ,
"ROAD_NM" : "봉산로" ,
"ROAD_NM_ADDR" : " " ,
"ROUTE_CD" : "30300002" ,
"TOTAL_DIST" : "72"
} ,
{
"BUSSTOP_ENG_NM" : "Gujeuk-dong" ,
"BUSSTOP_NM" : "송강마을아파트" ,
"BUSSTOP_SEQ" : "2" ,
"BUSSTOP_TP" : " " ,
"BUS_NODE_ID" : "8001178" ,
"BUS_STOP_ID" : "44790" ,
"GPS_LATI" : 36.437572 ,
"GPS_LONG" : 127.38576 ,
"ROAD_NM" : "봉산로" ,
"ROAD_NM_ADDR" : " " ,
"ROUTE_CD" : "30300002" ,
"TOTAL_DIST" : "1478"
} ,
{
"BUSSTOP_ENG_NM" : "Bukdaejeon Nonghyup bank" ,
"BUSSTOP_NM" : "송강전통시장" ,
"BUSSTOP_SEQ" : "3" ,
"BUSSTOP_TP" : " " ,
"BUS_NODE_ID" : "8001794" ,
"BUS_STOP_ID" : "44780" ,
"GPS_LATI" : 36.43565 ,
"GPS_LONG" : 127.386406 ,
"ROAD_NM" : "구즉로" ,
"ROAD_NM_ADDR" : " " ,
"ROUTE_CD" : "30300002" ,
"TOTAL_DIST" : "1736"
} ,
{
"BUSSTOP_ENG_NM" : "Songgang Elementary School" ,
"BUSSTOP_NM" : "송강초등학교" ,
"BUSSTOP_SEQ" : "4" ,
"BUSSTOP_TP" : " " ,
"BUS_NODE_ID" : "8002050" ,
"BUS_STOP_ID" : "44730" ,
"GPS_LATI" : 36.43245 ,
"GPS_LONG" : 127.38405 ,
"ROAD_NM" : "구즉로" ,
"ROAD_NM_ADDR" : " " ,
"ROUTE_CD" : "30300002" ,
"TOTAL_DIST" : "2157"
} ,
{
"BUSSTOP_ENG_NM" : "Geurin Apts." ,
"BUSSTOP_NM" : "그린아파트" ,
"BUSSTOP_SEQ" : "5" ,
"BUSSTOP_TP" : " " ,
"BUS_NODE_ID" : "8001200" ,
"BUS_STOP_ID" : "44710" ,
"GPS_LATI" : 36.430603 ,
"GPS_LONG" : 127.38317 ,
"ROAD_NM" : "구즉로" ,
"ROAD_NM_ADDR" : " " ,
"ROUTE_CD" : "30300002" ,
"TOTAL_DIST" : "2376"
} ,
{
"BUSSTOP_ENG_NM" : "Hanmaeul Apts." ,
"BUSSTOP_NM" : "한마을아파트" ,
"BUSSTOP_SEQ" : "6" ,
"BUSSTOP_TP" : " " ,
"BUS_NODE_ID" : "8002909" ,
"BUS_STOP_ID" : "44740" ,
"GPS_LATI" : 36.428967 ,
"GPS_LONG" : 127.38423 ,
"ROAD_NM" : " " ,
"ROAD_NM_ADDR" : " " ,
"ROUTE_CD" : "30300002" ,
"TOTAL_DIST" : "2651"
} ,
{
"BUSSTOP_ENG_NM" : "Agricultural Development/Technology Center" ,
"BUSSTOP_NM" : "북부여성가족원" ,
"BUSSTOP_SEQ" : "7" ,
"BUSSTOP_TP" : " " ,
"BUS_NODE_ID" : "8001284" ,
"BUS_STOP_ID" : "44850" ,
"GPS_LATI" : 36.429676 ,
"GPS_LONG" : 127.38679 ,
"ROAD_NM" : "대덕대로" ,
"ROAD_NM_ADDR" : " " ,
"ROUTE_CD" : "30300002" ,
"TOTAL_DIST" : "2964"
} ,
{
"BUSSTOP_ENG_NM" : "Kiheung Machinery" ,
"BUSSTOP_NM" : "기흥기계" ,
"BUSSTOP_SEQ" : "8" ,
"BUSSTOP_TP" : " " ,
"BUS_NODE_ID" : "8001230" ,
"BUS_STOP_ID" : "51830" ,
"GPS_LATI" : 36.44141 ,
"GPS_LONG" : 127.400116 ,
"ROAD_NM" : "대덕대로" ,
"ROAD_NM_ADDR" : " " ,
"ROUTE_CD" : "30300002" ,
"TOTAL_DIST" : "4795"
} ,
{
"BUSSTOP_ENG_NM" : "Hyosung Sintanjin Factory" ,
"BUSSTOP_NM" : "효성신탄진공장" ,
"BUSSTOP_SEQ" : "9" ,
"BUSSTOP_TP" : " " ,
"BUS_NODE_ID" : "8003020" ,
"BUS_STOP_ID" : "51860" ,
"GPS_LATI" : 36.444374 ,
"GPS_LONG" : 127.40408 ,
"ROAD_NM" : " " ,
"ROAD_NM_ADDR" : " " ,
"ROUTE_CD" : "30300002" ,
"TOTAL_DIST" : "5278"
} ,
{
"BUSSTOP_ENG_NM" : "Moksang-dong Community Center" ,
"BUSSTOP_NM" : "목상동주민센터" ,
"BUSSTOP_SEQ" : "10" ,
"BUSSTOP_TP" : " " ,
"BUS_NODE_ID" : "8001632" ,
"BUS_STOP_ID" : "51750" ,
"GPS_LATI" : 36.44893 ,
"GPS_LONG" : 127.41211 ,
"ROAD_NM" : "대덕대로" ,
"ROAD_NM_ADDR" : " " ,
"ROUTE_CD" : "30300002" ,
"TOTAL_DIST" : "6164"
} ,
{
"BUSSTOP_ENG_NM" : "Sintanjin Market" ,
"BUSSTOP_NM" : "신탄진시장" ,
"BUSSTOP_SEQ" : "11" ,
"BUSSTOP_TP" : " " ,
"BUS_NODE_ID" : "8002131" ,
"BUS_STOP_ID" : "51700" ,
"GPS_LATI" : 36.450222 ,
"GPS_LONG" : 127.42443 ,
"ROAD_NM" : "대덕대로" ,
"ROAD_NM_ADDR" : " " ,
"ROUTE_CD" : "30300002" ,
"TOTAL_DIST" : "7340"
} ,
{
"BUSSTOP_ENG_NM" : "Sintanjin Station" ,
"BUSSTOP_NM" : "신탄진역" ,
"BUSSTOP_SEQ" : "12" ,
"BUSSTOP_TP" : " " ,
"BUS_NODE_ID" : "8002133" ,
"BUS_STOP_ID" : "52790" ,
"GPS_LATI" : 36.449863 ,
"GPS_LONG" : 127.428955 ,
"ROAD_NM" : "신탄진로" ,
"ROAD_NM_ADDR" : " " ,
"ROUTE_CD" : "30300002" ,
"TOTAL_DIST" : "7863"
} ,
{
"BUSSTOP_ENG_NM" : "Namgyeong Village" ,
"BUSSTOP_NM" : "남경마을" ,
"BUSSTOP_SEQ" : "13" ,
"BUSSTOP_TP" : " " ,
"BUS_NODE_ID" : "8001241" ,
"BUS_STOP_ID" : "51720" ,
"GPS_LATI" : 36.44464 ,
"GPS_LONG" : 127.42941 ,
"ROAD_NM" : "신탄진로" ,
"ROAD_NM_ADDR" : " " ,
"ROUTE_CD" : "30300002" ,
"TOTAL_DIST" : "8450"
} ,
{
"BUSSTOP_ENG_NM" : "Deogam-dong" ,
"BUSSTOP_NM" : "덕암동주민센터" ,
"BUSSTOP_SEQ" : "14" ,
"BUSSTOP_TP" : " " ,
"BUS_NODE_ID" : "8001473" ,
"BUS_STOP_ID" : "52330" ,
"GPS_LATI" : 36.438053 ,
"GPS_LONG" : 127.42623 ,
"ROAD_NM" : "신탄진로" ,
"ROAD_NM_ADDR" : " " ,
"ROUTE_CD" : "30300002" ,
"TOTAL_DIST" : "9258"
} ,
{
"BUSSTOP_ENG_NM" : "Sintanjin Hanil Hospital" ,
"BUSSTOP_NM" : "신탄진한일병원" ,
"BUSSTOP_SEQ" : "15" ,
"BUSSTOP_TP" : " " ,
"BUS_NODE_ID" : "8002140" ,
"BUS_STOP_ID" : "52270" ,
"GPS_LATI" : 36.43331 ,
"GPS_LONG" : 127.4238 ,
"ROAD_NM" : "신탄진로" ,
"ROAD_NM_ADDR" : " " ,
"ROUTE_CD" : "30300002" ,
"TOTAL_DIST" : "9831"
} ,
{
"BUSSTOP_ENG_NM" : "Sindae Jugong Apts." ,
"BUSSTOP_NM" : "신대주공아파트" ,
"BUSSTOP_SEQ" : "16" ,
"BUSSTOP_TP" : " " ,
"BUS_NODE_ID" : "8002093" ,
"BUS_STOP_ID" : "50800" ,
"GPS_LATI" : 36.400158 ,
"GPS_LONG" : 127.42282 ,
"ROAD_NM" : "신탄진로" ,
"ROAD_NM_ADDR" : " " ,
"ROUTE_CD" : "30300002" ,
"TOTAL_DIST" : "13746"
} ,
{
"BUSSTOP_ENG_NM" : "Eupnae-dong Hyundai Apts." ,
"BUSSTOP_NM" : "읍내동현대아파트" ,
"BUSSTOP_SEQ" : "17" ,
"BUSSTOP_TP" : " " ,
"BUS_NODE_ID" : "8002464" ,
"BUS_STOP_ID" : "50720" ,
"GPS_LATI" : 36.37835 ,
"GPS_LONG" : 127.426674 ,
"ROAD_NM" : " " ,
"ROAD_NM_ADDR" : " " ,
"ROUTE_CD" : "30300002" ,
"TOTAL_DIST" : "16339"
} ,
{
"BUSSTOP_ENG_NM" : "Daeduck Fire Station" ,
"BUSSTOP_NM" : "대전지방국세청" ,
"BUSSTOP_SEQ" : "18" ,
"BUSSTOP_TP" : " " ,
"BUS_NODE_ID" : "8001430" ,
"BUS_STOP_ID" : "51140" ,
"GPS_LATI" : 36.372147 ,
"GPS_LONG" : 127.42838 ,
"ROAD_NM" : "계족로" ,
"ROAD_NM_ADDR" : " " ,
"ROUTE_CD" : "30300002" ,
"TOTAL_DIST" : "17044"
} ,
{
"BUSSTOP_ENG_NM" : "Beop 2(e)-dong Community Center" ,
"BUSSTOP_NM" : "법동전통시장" ,
"BUSSTOP_SEQ" : "19" ,
"BUSSTOP_TP" : " " ,
"BUS_NODE_ID" : "8001721" ,
"BUS_STOP_ID" : "51410" ,
"GPS_LATI" : 36.366577 ,
"GPS_LONG" : 127.429886 ,
"ROAD_NM" : "계족로" ,
"ROAD_NM_ADDR" : " " ,
"ROUTE_CD" : "30300002" ,
"TOTAL_DIST" : "17676"
} ,
{
"BUSSTOP_ENG_NM" : "Jungni-dong" ,
"BUSSTOP_NM" : "중리동" ,
"BUSSTOP_SEQ" : "20" ,
"BUSSTOP_TP" : " " ,
"BUS_NODE_ID" : "8002609" ,
"BUS_STOP_ID" : "51440" ,
"GPS_LATI" : 36.36276 ,
"GPS_LONG" : 127.43094 ,
"ROAD_NM" : " " ,
"ROAD_NM_ADDR" : " " ,
"ROUTE_CD" : "30300002" ,
"TOTAL_DIST" : "18110"
} ,
{
"BUSSTOP_ENG_NM" : "Korea Electric Power Corporation" ,
"BUSSTOP_NM" : "한국전력공사" ,
"BUSSTOP_SEQ" : "21" ,
"BUSSTOP_TP" : " " ,
"BUS_NODE_ID" : "8002880" ,
"BUS_STOP_ID" : "11810" ,
"GPS_LATI" : 36.357193 ,
"GPS_LONG" : 127.43447 ,
"ROAD_NM" : " " ,
"ROAD_NM_ADDR" : " " ,
"ROUTE_CD" : "30300002" ,
"TOTAL_DIST" : "18826"
} ,
{
"BUSSTOP_ENG_NM" : "Complex Express Bus Terminal" ,
"BUSSTOP_NM" : "복합터미널" ,
"BUSSTOP_SEQ" : "22" ,
"BUSSTOP_TP" : " " ,
"BUS_NODE_ID" : "8001096" ,
"BUS_STOP_ID" : "11830" ,
"GPS_LATI" : 36.349014 ,
"GPS_LONG" : 127.43567 ,
"ROAD_NM" : "동서대로" ,
"ROAD_NM_ADDR" : " " ,
"ROUTE_CD" : "30300002" ,
"TOTAL_DIST" : "20408"
} ,
{
"BUSSTOP_ENG_NM" : "Seongnam Negeori(Intersection)" ,
"BUSSTOP_NM" : "성남네거리" ,
"BUSSTOP_SEQ" : "23" ,
"BUSSTOP_TP" : " " ,
"BUS_NODE_ID" : "8001994" ,
"BUS_STOP_ID" : "11970" ,
"GPS_LATI" : 36.34042 ,
"GPS_LONG" : 127.43501 ,
"ROAD_NM" : "우암로" ,
"ROAD_NM_ADDR" : " " ,
"ROUTE_CD" : "30300002" ,
"TOTAL_DIST" : "21697"
} ,
{
"BUSSTOP_ENG_NM" : "Daejeon Station" ,
"BUSSTOP_NM" : "대전역" ,
"BUSSTOP_SEQ" : "24" ,
"BUSSTOP_TP" : " " ,
"BUS_NODE_ID" : "8001419" ,
"BUS_STOP_ID" : "12390" ,
"GPS_LATI" : 36.332737 ,
"GPS_LONG" : 127.431725 ,
"ROAD_NM" : "대전로" ,
"ROAD_NM_ADDR" : " " ,
"ROUTE_CD" : "30300002" ,
"TOTAL_DIST" : "22883"
} ,
{
"BUSSTOP_ENG_NM" : "Eunhaeng-dong" ,
"BUSSTOP_NM" : "으능정이거리" ,
"BUSSTOP_SEQ" : "25" ,
"BUSSTOP_TP" : " " ,
"BUS_NODE_ID" : "8005994" ,
"BUS_STOP_ID" : "20060" ,
"GPS_LATI" : 36.329636 ,
"GPS_LONG" : 127.42795 ,
"ROAD_NM" : " " ,
"ROAD_NM_ADDR" : " " ,
"ROUTE_CD" : "30300002" ,
"TOTAL_DIST" : "23519"
} ,
{
"BUSSTOP_ENG_NM" : "Motorcycle Street" ,
"BUSSTOP_NM" : "오토바이거리" ,
"BUSSTOP_SEQ" : "26" ,
"BUSSTOP_TP" : " " ,
"BUS_NODE_ID" : "8002252" ,
"BUS_STOP_ID" : "20790" ,
"GPS_LATI" : 36.322025 ,
"GPS_LONG" : 127.42954 ,
"ROAD_NM" : "대종로" ,
"ROAD_NM_ADDR" : " " ,
"ROUTE_CD" : "30300002" ,
"TOTAL_DIST" : "24585"
} ,
{
"BUSSTOP_ENG_NM" : "Hanbat Sports Complex" ,
"BUSSTOP_NM" : "한밭종합운동장" ,
"BUSSTOP_SEQ" : "27" ,
"BUSSTOP_TP" : " " ,
"BUS_NODE_ID" : "8002743" ,
"BUS_STOP_ID" : "21090" ,
"GPS_LATI" : 36.31673 ,
"GPS_LONG" : 127.43257 ,
"ROAD_NM" : " " ,
"ROAD_NM_ADDR" : " " ,
"ROUTE_CD" : "30300002" ,
"TOTAL_DIST" : "25187"
} ,
{
"BUSSTOP_ENG_NM" : "Busa Negeori(Intersection)" ,
"BUSSTOP_NM" : "부사오거리" ,
"BUSSTOP_SEQ" : "28" ,
"BUSSTOP_TP" : " " ,
"BUS_NODE_ID" : "8001789" ,
"BUS_STOP_ID" : "21130" ,
"GPS_LATI" : 36.312645 ,
"GPS_LONG" : 127.43552 ,
"ROAD_NM" : "대종로" ,
"ROAD_NM_ADDR" : " " ,
"ROUTE_CD" : "30300002" ,
"TOTAL_DIST" : "25714"
} ,
{
"BUSSTOP_ENG_NM" : "Seokgyo-dong Community Center" ,
"BUSSTOP_NM" : "석교동행정복지센터" ,
"BUSSTOP_SEQ" : "29" ,
"BUSSTOP_TP" : " " ,
"BUS_NODE_ID" : "8001964" ,
"BUS_STOP_ID" : "20890" ,
"GPS_LATI" : 36.309402 ,
"GPS_LONG" : 127.44198 ,
"ROAD_NM" : "대종로" ,
"ROAD_NM_ADDR" : " " ,
"ROUTE_CD" : "30300002" ,
"TOTAL_DIST" : "26396"
} ,
{
"BUSSTOP_ENG_NM" : "Ho-dong" ,
"BUSSTOP_NM" : "호동" ,
"BUSSTOP_SEQ" : "30" ,
"BUSSTOP_TP" : " " ,
"BUS_NODE_ID" : "8002981" ,
"BUS_STOP_ID" : "20930" ,
"GPS_LATI" : 36.3047 ,
"GPS_LONG" : 127.44925 ,
"ROAD_NM" : " " ,
"ROAD_NM_ADDR" : " " ,
"ROUTE_CD" : "30300002" ,
"TOTAL_DIST" : "27252"
} ,
{
"BUSSTOP_ENG_NM" : "Euneosong Elementary School" ,
"BUSSTOP_NM" : "은어송초등학교" ,
"BUSSTOP_SEQ" : "31" ,
"BUSSTOP_TP" : " " ,
"BUS_NODE_ID" : "8002833" ,
"BUS_STOP_ID" : "10400" ,
"GPS_LATI" : 36.30167 ,
"GPS_LONG" : 127.45638 ,
"ROAD_NM" : " " ,
"ROAD_NM_ADDR" : " " ,
"ROUTE_CD" : "30300002" ,
"TOTAL_DIST" : "28194"
} ,
{
"BUSSTOP_ENG_NM" : "Okgye-dong" ,
"BUSSTOP_NM" : "옥계동" ,
"BUSSTOP_SEQ" : "32" ,
"BUSSTOP_TP" : "2" ,
"BUS_NODE_ID" : "8002254" ,
"BUS_STOP_ID" : "20980" ,
"GPS_LATI" : 36.29909 ,
"GPS_LONG" : 127.454544 ,
"ROAD_NM" : "대종로" ,
"ROAD_NM_ADDR" : " " ,
"ROUTE_CD" : "30300002" ,
"TOTAL_DIST" : "29612"
} ,
{
"BUSSTOP_ENG_NM" : "Okgye-dong" ,
"BUSSTOP_NM" : "옥계동" ,
"BUSSTOP_SEQ" : "33" ,
"BUSSTOP_TP" : " " ,
"BUS_NODE_ID" : "9002254" ,
"BUS_STOP_ID" : "20980" ,
"GPS_LATI" : 36.300472 ,
"GPS_LONG" : 127.453384 ,
"ROAD_NM" : "대종로" ,
"ROAD_NM_ADDR" : " " ,
"ROUTE_CD" : "30300002" ,
"TOTAL_DIST" : "29797"
} ,
{
"BUSSTOP_ENG_NM" : "Ho-dong" ,
"BUSSTOP_NM" : "호동" ,
"BUSSTOP_SEQ" : "34" ,
"BUSSTOP_TP" : " " ,
"BUS_NODE_ID" : "8002980" ,
"BUS_STOP_ID" : "20940" ,
"GPS_LATI" : 36.303894 ,
"GPS_LONG" : 127.45041 ,
"ROAD_NM" : " " ,
"ROAD_NM_ADDR" : " " ,
"ROUTE_CD" : "30300002" ,
"TOTAL_DIST" : "30262"
} ,
{
"BUSSTOP_ENG_NM" : "Seokgyo-dong Community Center" ,
"BUSSTOP_NM" : "석교동행정복지센터" ,
"BUSSTOP_SEQ" : "35" ,
"BUSSTOP_TP" : " " ,
"BUS_NODE_ID" : "8001963" ,
"BUS_STOP_ID" : "20900" ,
"GPS_LATI" : 36.309025 ,
"GPS_LONG" : 127.443535 ,
"ROAD_NM" : "대종로" ,
"ROAD_NM_ADDR" : " " ,
"ROUTE_CD" : "30300002" ,
"TOTAL_DIST" : "31110"
} ,
{
"BUSSTOP_ENG_NM" : "Busa Negeori(Intersection)" ,
"BUSSTOP_NM" : "부사오거리" ,
"BUSSTOP_SEQ" : "36" ,
"BUSSTOP_TP" : " " ,
"BUS_NODE_ID" : "8001792" ,
"BUS_STOP_ID" : "21120" ,
"GPS_LATI" : 36.31405 ,
"GPS_LONG" : 127.43449 ,
"ROAD_NM" : "대종로" ,
"ROAD_NM_ADDR" : " " ,
"ROUTE_CD" : "30300002" ,
"TOTAL_DIST" : "32117"
} ,
{
"BUSSTOP_ENG_NM" : "Hanbat Sports Complex" ,
"BUSSTOP_NM" : "한밭종합운동장" ,
"BUSSTOP_SEQ" : "37" ,
"BUSSTOP_TP" : " " ,
"BUS_NODE_ID" : "8002744" ,
"BUS_STOP_ID" : "21100" ,
"GPS_LATI" : 36.317005 ,
"GPS_LONG" : 127.432846 ,
"ROAD_NM" : " " ,
"ROAD_NM_ADDR" : " " ,
"ROUTE_CD" : "30300002" ,
"TOTAL_DIST" : "32478"
} ,
{
"BUSSTOP_ENG_NM" : "Motorcycle Street" ,
"BUSSTOP_NM" : "오토바이거리" ,
"BUSSTOP_SEQ" : "38" ,
"BUSSTOP_TP" : " " ,
"BUS_NODE_ID" : "8002251" ,
"BUS_STOP_ID" : "20800" ,
"GPS_LATI" : 36.321606 ,
"GPS_LONG" : 127.43011 ,
"ROAD_NM" : "대종로" ,
"ROAD_NM_ADDR" : " " ,
"ROUTE_CD" : "30300002" ,
"TOTAL_DIST" : "33047"
} ,
{
"BUSSTOP_ENG_NM" : "Euneungjeongi" ,
"BUSSTOP_NM" : "으능정이거리" ,
"BUSSTOP_SEQ" : "39" ,
"BUSSTOP_TP" : " " ,
"BUS_NODE_ID" : "8002437" ,
"BUS_STOP_ID" : "20050" ,
"GPS_LATI" : 36.3291 ,
"GPS_LONG" : 127.427444 ,
"ROAD_NM" : " " ,
"ROAD_NM_ADDR" : " " ,
"ROUTE_CD" : "30300002" ,
"TOTAL_DIST" : "34070"
} ,
{
"BUSSTOP_ENG_NM" : "Daejeon Station" ,
"BUSSTOP_NM" : "대전역" ,
"BUSSTOP_SEQ" : "40" ,
"BUSSTOP_TP" : " " ,
"BUS_NODE_ID" : "8001418" ,
"BUS_STOP_ID" : "12400" ,
"GPS_LATI" : 36.33254 ,
"GPS_LONG" : 127.43213 ,
"ROAD_NM" : "대전로" ,
"ROAD_NM_ADDR" : " " ,
"ROUTE_CD" : "30300002" ,
"TOTAL_DIST" : "34736"
} ,
{
"BUSSTOP_ENG_NM" : "Seongnam Negeori(Intersection)" ,
"BUSSTOP_NM" : "성남네거리" ,
"BUSSTOP_SEQ" : "41" ,
"BUSSTOP_TP" : " " ,
"BUS_NODE_ID" : "8001996" ,
"BUS_STOP_ID" : "11980" ,
"GPS_LATI" : 36.3417 ,
"GPS_LONG" : 127.43559 ,
"ROAD_NM" : "계족로" ,
"ROAD_NM_ADDR" : " " ,
"ROUTE_CD" : "30300002" ,
"TOTAL_DIST" : "36165"
} ,
{
"BUSSTOP_ENG_NM" : "Complex Express Bus Terminal" ,
"BUSSTOP_NM" : "복합터미널" ,
"BUSSTOP_SEQ" : "42" ,
"BUSSTOP_TP" : " " ,
"BUS_NODE_ID" : "8001097" ,
"BUS_STOP_ID" : "12010" ,
"GPS_LATI" : 36.349037 ,
"GPS_LONG" : 127.437195 ,
"ROAD_NM" : "동서대로" ,
"ROAD_NM_ADDR" : " " ,
"ROUTE_CD" : "30300002" ,
"TOTAL_DIST" : "37378"
} ,
{
"BUSSTOP_ENG_NM" : "Korea Electric Power Corporation" ,
"BUSSTOP_NM" : "한국전력공사" ,
"BUSSTOP_SEQ" : "43" ,
"BUSSTOP_TP" : " " ,
"BUS_NODE_ID" : "8002881" ,
"BUS_STOP_ID" : "11820" ,
"GPS_LATI" : 36.357525 ,
"GPS_LONG" : 127.4347 ,
"ROAD_NM" : " " ,
"ROAD_NM_ADDR" : " " ,
"ROUTE_CD" : "30300002" ,
"TOTAL_DIST" : "38838"
} ,
{
"BUSSTOP_ENG_NM" : "Jungni-dong" ,
"BUSSTOP_NM" : "중리동" ,
"BUSSTOP_SEQ" : "44" ,
"BUSSTOP_TP" : " " ,
"BUS_NODE_ID" : "8002611" ,
"BUS_STOP_ID" : "51450" ,
"GPS_LATI" : 36.363384 ,
"GPS_LONG" : 127.43128 ,
"ROAD_NM" : " " ,
"ROAD_NM_ADDR" : " " ,
"ROUTE_CD" : "30300002" ,
"TOTAL_DIST" : "39605"
} ,
{
"BUSSTOP_ENG_NM" : "Boram Apts." ,
"BUSSTOP_NM" : "법동전통시장" ,
"BUSSTOP_SEQ" : "45" ,
"BUSSTOP_TP" : " " ,
"BUS_NODE_ID" : "8001744" ,
"BUS_STOP_ID" : "51180" ,
"GPS_LATI" : 36.36674 ,
"GPS_LONG" : 127.43035 ,
"ROAD_NM" : "계족로" ,
"ROAD_NM_ADDR" : " " ,
"ROUTE_CD" : "30300002" ,
"TOTAL_DIST" : "39987"
} ,
{
"BUSSTOP_ENG_NM" : "Daeduck Fire Station" ,
"BUSSTOP_NM" : "대덕소방서" ,
"BUSSTOP_SEQ" : "46" ,
"BUSSTOP_TP" : " " ,
"BUS_NODE_ID" : "8001536" ,
"BUS_STOP_ID" : "51150" ,
"GPS_LATI" : 36.373375 ,
"GPS_LONG" : 127.42845 ,
"ROAD_NM" : "계족로" ,
"ROAD_NM_ADDR" : " " ,
"ROUTE_CD" : "30300002" ,
"TOTAL_DIST" : "40743"
} ,
{
"BUSSTOP_ENG_NM" : "Imperial Palace" ,
"BUSSTOP_NM" : "제월당" ,
"BUSSTOP_SEQ" : "47" ,
"BUSSTOP_TP" : " " ,
"BUS_NODE_ID" : "8002465" ,
"BUS_STOP_ID" : "50730" ,
"GPS_LATI" : 36.37854 ,
"GPS_LONG" : 127.42702 ,
"ROAD_NM" : " " ,
"ROAD_NM_ADDR" : " " ,
"ROUTE_CD" : "30300002" ,
"TOTAL_DIST" : "41331"
} ,
{
"BUSSTOP_ENG_NM" : "Wa-dong Hyundai Apts." ,
"BUSSTOP_NM" : "와동현대아파트" ,
"BUSSTOP_SEQ" : "48" ,
"BUSSTOP_TP" : " " ,
"BUS_NODE_ID" : "8002259" ,
"BUS_STOP_ID" : "50810" ,
"GPS_LATI" : 36.400826 ,
"GPS_LONG" : 127.42295 ,
"ROAD_NM" : "신탄진로" ,
"ROAD_NM_ADDR" : " " ,
"ROUTE_CD" : "30300002" ,
"TOTAL_DIST" : "43978"
} ,
{
"BUSSTOP_ENG_NM" : "Sintanjin Hanil Hospital" ,
"BUSSTOP_NM" : "신탄진한일병원" ,
"BUSSTOP_SEQ" : "49" ,
"BUSSTOP_TP" : " " ,
"BUS_NODE_ID" : "8002139" ,
"BUS_STOP_ID" : "52260" ,
"GPS_LATI" : 36.432716 ,
"GPS_LONG" : 127.42363 ,
"ROAD_NM" : "신탄진로" ,
"ROAD_NM_ADDR" : " " ,
"ROUTE_CD" : "30300002" ,
"TOTAL_DIST" : "47764"
} ,
{
"BUSSTOP_ENG_NM" : "Deogam-dong" ,
"BUSSTOP_NM" : "덕암동주민센터" ,
"BUSSTOP_SEQ" : "50" ,
"BUSSTOP_TP" : " " ,
"BUS_NODE_ID" : "8001474" ,
"BUS_STOP_ID" : "52340" ,
"GPS_LATI" : 36.4379 ,
"GPS_LONG" : 127.42651 ,
"ROAD_NM" : "신탄진로" ,
"ROAD_NM_ADDR" : " " ,
"ROUTE_CD" : "30300002" ,
"TOTAL_DIST" : "48395"
} ,
{
"BUSSTOP_ENG_NM" : "Namgyeong Village" ,
"BUSSTOP_NM" : "남경마을" ,
"BUSSTOP_SEQ" : "51" ,
"BUSSTOP_TP" : " " ,
"BUS_NODE_ID" : "8001242" ,
"BUS_STOP_ID" : "52830" ,
"GPS_LATI" : 36.444923 ,
"GPS_LONG" : 127.42969 ,
"ROAD_NM" : "신탄진로" ,
"ROAD_NM_ADDR" : " " ,
"ROUTE_CD" : "30300002" ,
"TOTAL_DIST" : "49247"
} ,
{
"BUSSTOP_ENG_NM" : "Sintanjin Station" ,
"BUSSTOP_NM" : "신탄진역" ,
"BUSSTOP_SEQ" : "52" ,
"BUSSTOP_TP" : " " ,
"BUS_NODE_ID" : "8002134" ,
"BUS_STOP_ID" : "52810" ,
"GPS_LATI" : 36.449253 ,
"GPS_LONG" : 127.42927 ,
"ROAD_NM" : "신탄진로" ,
"ROAD_NM_ADDR" : " " ,
"ROUTE_CD" : "30300002" ,
"TOTAL_DIST" : "49731"
} ,
{
"BUSSTOP_ENG_NM" : "Sintanjin Market" ,
"BUSSTOP_NM" : "신탄진시장" ,
"BUSSTOP_SEQ" : "53" ,
"BUSSTOP_TP" : " " ,
"BUS_NODE_ID" : "8002132" ,
"BUS_STOP_ID" : "51710" ,
"GPS_LATI" : 36.450474 ,
"GPS_LONG" : 127.42503 ,
"ROAD_NM" : "대덕대로" ,
"ROAD_NM_ADDR" : " " ,
"ROUTE_CD" : "30300002" ,
"TOTAL_DIST" : "50268"
} ,
{
"BUSSTOP_ENG_NM" : "Moksang-dong Community Center" ,
"BUSSTOP_NM" : "목상동주민센터" ,
"BUSSTOP_SEQ" : "54" ,
"BUSSTOP_TP" : " " ,
"BUS_NODE_ID" : "8001631" ,
"BUS_STOP_ID" : "51740" ,
"GPS_LATI" : 36.44869 ,
"GPS_LONG" : 127.41096 ,
"ROAD_NM" : "대덕대로" ,
"ROAD_NM_ADDR" : " " ,
"ROUTE_CD" : "30300002" ,
"TOTAL_DIST" : "51610"
} ,
{
"BUSSTOP_ENG_NM" : "Hyosung Sintanjin Factory" ,
"BUSSTOP_NM" : "효성신탄진공장" ,
"BUSSTOP_SEQ" : "55" ,
"BUSSTOP_TP" : " " ,
"BUS_NODE_ID" : "8003021" ,
"BUS_STOP_ID" : "51800" ,
"GPS_LATI" : 36.44466 ,
"GPS_LONG" : 127.40384 ,
"ROAD_NM" : " " ,
"ROAD_NM_ADDR" : " " ,
"ROUTE_CD" : "30300002" ,
"TOTAL_DIST" : "52386"
} ,
{
"BUSSTOP_ENG_NM" : "Kiheung Machinery" ,
"BUSSTOP_NM" : "기흥기계" ,
"BUSSTOP_SEQ" : "56" ,
"BUSSTOP_TP" : " " ,
"BUS_NODE_ID" : "8001231" ,
"BUS_STOP_ID" : "51790" ,
"GPS_LATI" : 36.44173 ,
"GPS_LONG" : 127.40005 ,
"ROAD_NM" : "대덕대로" ,
"ROAD_NM_ADDR" : " " ,
"ROUTE_CD" : "30300002" ,
"TOTAL_DIST" : "52859"
} ,
{
"BUSSTOP_ENG_NM" : "Agricultural Development/Technology Center" ,
"BUSSTOP_NM" : "북부여성가족원" ,
"BUSSTOP_SEQ" : "57" ,
"BUSSTOP_TP" : " " ,
"BUS_NODE_ID" : "8001283" ,
"BUS_STOP_ID" : "44840" ,
"GPS_LATI" : 36.431534 ,
"GPS_LONG" : 127.38721 ,
"ROAD_NM" : "대덕대로" ,
"ROAD_NM_ADDR" : " " ,
"ROUTE_CD" : "30300002" ,
"TOTAL_DIST" : "54503"
} ,
{
"BUSSTOP_ENG_NM" : "Hanmaeul Apts. Back Gate" ,
"BUSSTOP_NM" : "한마을아파트후문" ,
"BUSSTOP_SEQ" : "58" ,
"BUSSTOP_TP" : " " ,
"BUS_NODE_ID" : "8002911" ,
"BUS_STOP_ID" : "44760" ,
"GPS_LATI" : 36.42913 ,
"GPS_LONG" : 127.38439 ,
"ROAD_NM" : " " ,
"ROAD_NM_ADDR" : " " ,
"ROUTE_CD" : "30300002" ,
"TOTAL_DIST" : "55010"
} ,
{
"BUSSTOP_ENG_NM" : "Hanmaeul Apts." ,
"BUSSTOP_NM" : "한마을아파트" ,
"BUSSTOP_SEQ" : "59" ,
"BUSSTOP_TP" : " " ,
"BUS_NODE_ID" : "8002910" ,
"BUS_STOP_ID" : "44720" ,
"GPS_LATI" : 36.43031 ,
"GPS_LONG" : 127.383286 ,
"ROAD_NM" : " " ,
"ROAD_NM_ADDR" : " " ,
"ROUTE_CD" : "30300002" ,
"TOTAL_DIST" : "55253"
} ,
{
"BUSSTOP_ENG_NM" : "Bukdaejeon Nonghyup bank" ,
"BUSSTOP_NM" : "송강전통시장" ,
"BUSSTOP_SEQ" : "60" ,
"BUSSTOP_TP" : " " ,
"BUS_NODE_ID" : "8001793" ,
"BUS_STOP_ID" : "44810" ,
"GPS_LATI" : 36.43535 ,
"GPS_LONG" : 127.3863 ,
"ROAD_NM" : "구즉로" ,
"ROAD_NM_ADDR" : " " ,
"ROUTE_CD" : "30300002" ,
"TOTAL_DIST" : "55888"
} ,
{
"BUSSTOP_ENG_NM" : "Bongsan-dong" ,
"BUSSTOP_NM" : "송강마을아파트" ,
"BUSSTOP_SEQ" : "61" ,
"BUSSTOP_TP" : " " ,
"BUS_NODE_ID" : "8001782" ,
"BUS_STOP_ID" : "44800" ,
"GPS_LATI" : 36.4376 ,
"GPS_LONG" : 127.38602 ,
"ROAD_NM" : "봉산로" ,
"ROAD_NM_ADDR" : " " ,
"ROUTE_CD" : "30300002" ,
"TOTAL_DIST" : "56166"
} ,
{
"BUSSTOP_ENG_NM" : "Bongsan-dong Gijum" ,
"BUSSTOP_NM" : "봉산동기점" ,
"BUSSTOP_SEQ" : "62" ,
"BUSSTOP_TP" : "3" ,
"BUS_NODE_ID" : "9001783" ,
"BUS_STOP_ID" : "44490" ,
"GPS_LATI" : 36.44825 ,
"GPS_LONG" : 127.384605 ,
"ROAD_NM" : "봉산로" ,
"ROAD_NM_ADDR" : " " ,
"ROUTE_CD" : "30300002" ,
"TOTAL_DIST" : "57343"
} ,
{
"BUSSTOP_ENG_NM" : "Military Apts.Terminal" ,
"BUSSTOP_NM" : "군인아파트종점" ,
"BUSSTOP_SEQ" : "1" ,
"BUSSTOP_TP" : "1" ,
"BUS_NODE_ID" : "8005970" ,
"BUS_STOP_ID" : "82210" ,
"GPS_LATI" : 36.418064 ,
"GPS_LONG" : 127.33674 ,
"ROAD_NM" : " " ,
"ROAD_NM_ADDR" : " " ,
"ROUTE_CD" : "30300003" ,
"TOTAL_DIST" : "59"
} ,
{
"BUSSTOP_ENG_NM" : "Military Apts.Senior citizen center." ,
"BUSSTOP_NM" : "군인아파트노인정" ,
"BUSSTOP_SEQ" : "2" ,
"BUSSTOP_TP" : " " ,
"BUS_NODE_ID" : "8005969" ,
"BUS_STOP_ID" : "82070" ,
"GPS_LATI" : 36.415867 ,
"GPS_LONG" : 127.33618 ,
"ROAD_NM" : " " ,
"ROAD_NM_ADDR" : " " ,
"ROUTE_CD" : "30300003" ,
"TOTAL_DIST" : "320"
} ,
{
"BUSSTOP_ENG_NM" : "Jaun Shopping center" ,
"BUSSTOP_NM" : "자운상가" ,
"BUSSTOP_SEQ" : "3" ,
"BUSSTOP_TP" : " " ,
"BUS_NODE_ID" : "8005653" ,
"BUS_STOP_ID" : "81680" ,
"GPS_LATI" : 36.413765 ,
"GPS_LONG" : 127.337074 ,
"ROAD_NM" : " " ,
"ROAD_NM_ADDR" : " " ,
"ROUTE_CD" : "30300003" ,
"TOTAL_DIST" : "588"
} ,
{
"BUSSTOP_ENG_NM" : "Military Apts." ,
"BUSSTOP_NM" : "군인아파트" ,
"BUSSTOP_SEQ" : "4" ,
"BUSSTOP_TP" : " " ,
"BUS_NODE_ID" : "8001191" ,
"BUS_STOP_ID" : "43730" ,
"GPS_LATI" : 36.410934 ,
"GPS_LONG" : 127.337074 ,
"ROAD_NM" : "자운로" ,
"ROAD_NM_ADDR" : " " ,
"ROUTE_CD" : "30300003" ,
"TOTAL_DIST" : "897"
} ,
{
"BUSSTOP_ENG_NM" : "Welfare Center" ,
"BUSSTOP_NM" : "복지관" ,
"BUSSTOP_SEQ" : "5" ,
"BUSSTOP_TP" : " " ,
"BUS_NODE_ID" : "8001764" ,
"BUS_STOP_ID" : "43720" ,
"GPS_LATI" : 36.40888 ,
"GPS_LONG" : 127.33706 ,
"ROAD_NM" : "자운로" ,
"ROAD_NM_ADDR" : " " ,
"ROUTE_CD" : "30300003" ,
"TOTAL_DIST" : "1125"
} ,
{
"BUSSTOP_ENG_NM" : "---" ,
"BUSSTOP_NM" : "육군정보통신학교" ,
"BUSSTOP_SEQ" : "6" ,
"BUSSTOP_TP" : " " ,
"BUS_NODE_ID" : "8007407" ,
"BUS_STOP_ID" : "46560" ,
"GPS_LATI" : 36.40154 ,
"GPS_LONG" : 127.3401 ,
"ROAD_NM" : " " ,
"ROAD_NM_ADDR" : " " ,
"ROUTE_CD" : "30300003" ,
"TOTAL_DIST" : "2165"
} ,
{
"BUSSTOP_ENG_NM" : "Korea Army Signal School" ,
"BUSSTOP_NM" : "국군대전병원" ,
"BUSSTOP_SEQ" : "7" ,
"BUSSTOP_TP" : " " ,
"BUS_NODE_ID" : "8002435" ,
"BUS_STOP_ID" : "43670" ,
"GPS_LATI" : 36.40057 ,
"GPS_LONG" : 127.3458 ,
"ROAD_NM" : " " ,
"ROAD_NM_ADDR" : " " ,
"ROUTE_CD" : "30300003" ,
"TOTAL_DIST" : "2788"
} ,
{
"BUSSTOP_ENG_NM" : "Jaun-dong Terminal" ,
"BUSSTOP_NM" : "자운대네거리" ,
"BUSSTOP_SEQ" : "8" ,
"BUSSTOP_TP" : " " ,
"BUS_NODE_ID" : "8002491" ,
"BUS_STOP_ID" : "43700" ,
"GPS_LATI" : 36.395054 ,
"GPS_LONG" : 127.34872 ,
"ROAD_NM" : " " ,
"ROAD_NM_ADDR" : " " ,
"ROUTE_CD" : "30300003" ,
"TOTAL_DIST" : "3464"
} ,
{
"BUSSTOP_ENG_NM" : "Sinseong-dong Community Center" ,
"BUSSTOP_NM" : "신성동주민센터" ,
"BUSSTOP_SEQ" : "9" ,
"BUSSTOP_TP" : " " ,
"BUS_NODE_ID" : "8002110" ,
"BUS_STOP_ID" : "42980" ,
"GPS_LATI" : 36.388905 ,
"GPS_LONG" : 127.346725 ,
"ROAD_NM" : "가정로" ,
"ROAD_NM_ADDR" : " " ,
"ROUTE_CD" : "30300003" ,
"TOTAL_DIST" : "4306"
} ,
{
"BUSSTOP_ENG_NM" : "Seongdeok Middle School" ,
"BUSSTOP_NM" : "성덕중학교" ,
"BUSSTOP_SEQ" : "10" ,
"BUSSTOP_TP" : " " ,
"BUS_NODE_ID" : "8001997" ,
"BUS_STOP_ID" : "42950" ,
"GPS_LATI" : 36.38632 ,
"GPS_LONG" : 127.34598 ,
"ROAD_NM" : "신성서로" ,
"ROAD_NM_ADDR" : " " ,
"ROUTE_CD" : "30300003" ,
"TOTAL_DIST" : "4601"
} ,
{
"BUSSTOP_ENG_NM" : "Yuseong Senior Welfare Center" ,
"BUSSTOP_NM" : "유성구노인복지관" ,
"BUSSTOP_SEQ" : "11" ,
"BUSSTOP_TP" : " " ,
"BUS_NODE_ID" : "8002397" ,
"BUS_STOP_ID" : "42940" ,
"GPS_LATI" : 36.38425 ,
"GPS_LONG" : 127.345634 ,
"ROAD_NM" : " " ,
"ROAD_NM_ADDR" : " " ,
"ROUTE_CD" : "30300003" ,
"TOTAL_DIST" : "4884"
} ,
{
"BUSSTOP_ENG_NM" : "Research Institute of Space Communications" ,
"BUSSTOP_NM" : "우주통신연구소" ,
"BUSSTOP_SEQ" : "12" ,
"BUSSTOP_TP" : " " ,
"BUS_NODE_ID" : "8002348" ,
"BUS_STOP_ID" : "42570" ,
"GPS_LATI" : 36.377274 ,
"GPS_LONG" : 127.34237 ,
"ROAD_NM" : " " ,
"ROAD_NM_ADDR" : " " ,
"ROUTE_CD" : "30300003" ,
"TOTAL_DIST" : "5815"
} ,
{
"BUSSTOP_ENG_NM" : "Chungnam National University Playground" ,
"BUSSTOP_NM" : "북대전세무서/보훈요양원" ,
"BUSSTOP_SEQ" : "13" ,
"BUSSTOP_TP" : " " ,
"BUS_NODE_ID" : "8002740" ,
"BUS_STOP_ID" : "42550" ,
"GPS_LATI" : 36.374523 ,
"GPS_LONG" : 127.34144 ,
"ROAD_NM" : " " ,
"ROAD_NM_ADDR" : " " ,
"ROUTE_CD" : "30300003" ,
"TOTAL_DIST" : "6132"
} ,
{
"BUSSTOP_ENG_NM" : "Chungnam National University Back Gate" ,
"BUSSTOP_NM" : "충대서문" ,
"BUSSTOP_SEQ" : "14" ,
"BUSSTOP_TP" : " " ,
"BUS_NODE_ID" : "8002742" ,
"BUS_STOP_ID" : "42540" ,
"GPS_LATI" : 36.37055 ,
"GPS_LONG" : 127.34012 ,
"ROAD_NM" : " " ,
"ROAD_NM_ADDR" : " " ,
"ROUTE_CD" : "30300003" ,
"TOTAL_DIST" : "6589"
} ,
{
"BUSSTOP_ENG_NM" : "Gung-dong Negeori(Intersection)" ,
"BUSSTOP_NM" : "궁동교" ,
"BUSSTOP_SEQ" : "15" ,
"BUSSTOP_TP" : " " ,
"BUS_NODE_ID" : "8001196" ,
"BUS_STOP_ID" : "42130" ,
"GPS_LATI" : 36.36625 ,
"GPS_LONG" : 127.33871 ,
"ROAD_NM" : "유성대로" ,
"ROAD_NM_ADDR" : " " ,
"ROUTE_CD" : "30300003" ,
"TOTAL_DIST" : "7083"
} ,
{
"BUSSTOP_ENG_NM" : "Gung-dong Negeori(Intersection)" ,
"BUSSTOP_NM" : "장대네거리" ,
"BUSSTOP_SEQ" : "16" ,
"BUSSTOP_TP" : " " ,
"BUS_NODE_ID" : "8001194" ,
"BUS_STOP_ID" : "42120" ,
"GPS_LATI" : 36.363605 ,
"GPS_LONG" : 127.3376 ,
"ROAD_NM" : "유성대로" ,
"ROAD_NM_ADDR" : " " ,
"ROUTE_CD" : "30300003" ,
"TOTAL_DIST" : "7397"
} ,
{
"BUSSTOP_ENG_NM" : "Jangdae Negeori(Intersection)" ,
"BUSSTOP_NM" : "유성초네거리" ,
"BUSSTOP_SEQ" : "17" ,
"BUSSTOP_TP" : " " ,
"BUS_NODE_ID" : "8002493" ,
"BUS_STOP_ID" : "42080" ,
"GPS_LATI" : 36.361412 ,
"GPS_LONG" : 127.336006 ,
"ROAD_NM" : " " ,
"ROAD_NM_ADDR" : " " ,
"ROUTE_CD" : "30300003" ,
"TOTAL_DIST" : "7680"
} ,
{
"BUSSTOP_ENG_NM" : "Yuseong Market" ,
"BUSSTOP_NM" : "유성시장" ,
"BUSSTOP_SEQ" : "18" ,
"BUSSTOP_TP" : " " ,
"BUS_NODE_ID" : "8002404" ,
"BUS_STOP_ID" : "42010" ,
"GPS_LATI" : 36.358906 ,
"GPS_LONG" : 127.33311 ,
"ROAD_NM" : " " ,
"ROAD_NM_ADDR" : " " ,
"ROUTE_CD" : "30300003" ,
"TOTAL_DIST" : "8066"
} ,
{
"BUSSTOP_ENG_NM" : "---" ,
"BUSSTOP_NM" : "구암역" ,
"BUSSTOP_SEQ" : "19" ,
"BUSSTOP_TP" : " " ,
"BUS_NODE_ID" : "8007541" ,
"BUS_STOP_ID" : "41880" ,
"GPS_LATI" : 36.35619 ,
"GPS_LONG" : 127.33231 ,
"ROAD_NM" : " " ,
"ROAD_NM_ADDR" : " " ,
"ROUTE_CD" : "30300003" ,
"TOTAL_DIST" : "8478"
} ,
{
"BUSSTOP_ENG_NM" : "Yuseong Intercity Bus Terminal" ,
"BUSSTOP_NM" : "봉명네거리" ,
"BUSSTOP_SEQ" : "20" ,
"BUSSTOP_TP" : " " ,
"BUS_NODE_ID" : "8002402" ,
"BUS_STOP_ID" : "41190" ,
"GPS_LATI" : 36.355476 ,
"GPS_LONG" : 127.334816 ,
"ROAD_NM" : " " ,
"ROAD_NM_ADDR" : " " ,
"ROUTE_CD" : "30300003" ,
"TOTAL_DIST" : "8716"
} ,
{
"BUSSTOP_ENG_NM" : "Riviera Hotel" ,
"BUSSTOP_NM" : "봉명동우체국" ,
"BUSSTOP_SEQ" : "21" ,
"BUSSTOP_TP" : " " ,
"BUS_NODE_ID" : "8001590" ,
"BUS_STOP_ID" : "41210" ,
"GPS_LATI" : 36.35465 ,
"GPS_LONG" : 127.33812 ,
"ROAD_NM" : "계룡로" ,
"ROAD_NM_ADDR" : " " ,
"ROUTE_CD" : "30300003" ,
"TOTAL_DIST" : "9027"
} ,
{
"BUSSTOP_ENG_NM" : "Bongmyeong-dong Children`s Playground" ,
"BUSSTOP_NM" : "온천1동주민센터" ,
"BUSSTOP_SEQ" : "22" ,
"BUSSTOP_TP" : " " ,
"BUS_NODE_ID" : "8001777" ,
"BUS_STOP_ID" : "41220" ,
"GPS_LATI" : 36.35292 ,
"GPS_LONG" : 127.338425 ,
"ROAD_NM" : "계룡로" ,
"ROAD_NM_ADDR" : " " ,
"ROUTE_CD" : "30300003" ,
"TOTAL_DIST" : "9296"
} ,
{
"BUSSTOP_ENG_NM" : "Yuseong High School" ,
"BUSSTOP_NM" : "유성고등학교" ,
"BUSSTOP_SEQ" : "23" ,
"BUSSTOP_TP" : " " ,
"BUS_NODE_ID" : "8002393" ,
"BUS_STOP_ID" : "41610" ,
"GPS_LATI" : 36.350883 ,
"GPS_LONG" : 127.335625 ,
"ROAD_NM" : " " ,
"ROAD_NM_ADDR" : " " ,
"ROUTE_CD" : "30300003" ,
"TOTAL_DIST" : "9766"
} ,
{
"BUSSTOP_ENG_NM" : "Korea National Open University" ,
"BUSSTOP_NM" : "유성구보훈회관" ,
"BUSSTOP_SEQ" : "24" ,
"BUSSTOP_TP" : " " ,
"BUS_NODE_ID" : "8001704" ,
"BUS_STOP_ID" : "41580" ,
"GPS_LATI" : 36.351788 ,
"GPS_LONG" : 127.33177 ,
"ROAD_NM" : "유성대로" ,
"ROAD_NM_ADDR" : " " ,
"ROUTE_CD" : "30300003" ,
"TOTAL_DIST" : "10130"
} ,
{
"BUSSTOP_ENG_NM" : "Guam-dong" ,
"BUSSTOP_NM" : "구암동" ,
"BUSSTOP_SEQ" : "25" ,
"BUSSTOP_TP" : " " ,
"BUS_NODE_ID" : "8001167" ,
"BUS_STOP_ID" : "41520" ,
"GPS_LATI" : 36.34947 ,
"GPS_LONG" : 127.326836 ,
"ROAD_NM" : "유성대로" ,
"ROAD_NM_ADDR" : " " ,
"ROUTE_CD" : "30300003" ,
"TOTAL_DIST" : "10758"
} ,
{
"BUSSTOP_ENG_NM" : "Yuseong Middle School" ,
"BUSSTOP_NM" : "유성생명과학고" ,
"BUSSTOP_SEQ" : "26" ,
"BUSSTOP_TP" : " " ,
"BUS_NODE_ID" : "8002419" ,
"BUS_STOP_ID" : "41500" ,
"GPS_LATI" : 36.34874 ,
"GPS_LONG" : 127.32633 ,
"ROAD_NM" : " " ,
"ROAD_NM_ADDR" : " " ,
"ROUTE_CD" : "30300003" ,
"TOTAL_DIST" : "10947"
} ,
{
"BUSSTOP_ENG_NM" : "---" ,
"BUSSTOP_NM" : "복용1통" ,
"BUSSTOP_SEQ" : "27" ,
"BUSSTOP_TP" : " " ,
"BUS_NODE_ID" : "8007238" ,
"BUS_STOP_ID" : "82380" ,
"GPS_LATI" : 36.343098 ,
"GPS_LONG" : 127.31787 ,
"ROAD_NM" : " " ,
"ROAD_NM_ADDR" : " " ,
"ROUTE_CD" : "30300003" ,
"TOTAL_DIST" : "12060"
} ,
{
"BUSSTOP_ENG_NM" : "---" ,
"BUSSTOP_NM" : "복용3통" ,
"BUSSTOP_SEQ" : "28" ,
"BUSSTOP_TP" : " " ,
"BUS_NODE_ID" : "8007239" ,
"BUS_STOP_ID" : "82400" ,
"GPS_LATI" : 36.34521 ,
"GPS_LONG" : 127.31292 ,
"ROAD_NM" : " " ,
"ROAD_NM_ADDR" : " " ,
"ROUTE_CD" : "30300003" ,
"TOTAL_DIST" : "12562"
} ,
{
"BUSSTOP_ENG_NM" : "---" ,
"BUSSTOP_NM" : "씨엔씨티에너지학하CES" ,
"BUSSTOP_SEQ" : "29" ,
"BUSSTOP_TP" : " " ,
"BUS_NODE_ID" : "8007240" ,
"BUS_STOP_ID" : "82420" ,
"GPS_LATI" : 36.34449 ,
"GPS_LONG" : 127.30779 ,
"ROAD_NM" : " " ,
"ROAD_NM_ADDR" : " " ,
"ROUTE_CD" : "30300003" ,
"TOTAL_DIST" : "13065"
} ,
{
"BUSSTOP_ENG_NM" : "Mihak Apt." ,
"BUSSTOP_NM" : "미학아파트" ,
"BUSSTOP_SEQ" : "30" ,
"BUSSTOP_TP" : " " ,
"BUS_NODE_ID" : "8007023" ,
"BUS_STOP_ID" : "82440" ,
"GPS_LATI" : 36.34193 ,
"GPS_LONG" : 127.30295 ,
"ROAD_NM" : " " ,
"ROAD_NM_ADDR" : " " ,
"ROUTE_CD" : "30300003" ,
"TOTAL_DIST" : "13773"
} ,
{
"BUSSTOP_ENG_NM" : "Hakuitteul Apts." ,
"BUSSTOP_NM" : "학의뜰아파트" ,
"BUSSTOP_SEQ" : "31" ,
"BUSSTOP_TP" : " " ,
"BUS_NODE_ID" : "8003073" ,
"BUS_STOP_ID" : "45800" ,
"GPS_LATI" : 36.33584 ,
"GPS_LONG" : 127.30183 ,
"ROAD_NM" : " " ,
"ROAD_NM_ADDR" : " " ,
"ROUTE_CD" : "30300003" ,
"TOTAL_DIST" : "14337"
} ,
{
"BUSSTOP_ENG_NM" : "Hakuitteul Apts." ,
"BUSSTOP_NM" : "학하동종점" ,
"BUSSTOP_SEQ" : "32" ,
"BUSSTOP_TP" : " " ,
"BUS_NODE_ID" : "8003072" ,
"BUS_STOP_ID" : "45810" ,
"GPS_LATI" : 36.337196 ,
"GPS_LONG" : 127.30318 ,
"ROAD_NM" : " " ,
"ROAD_NM_ADDR" : " " ,
"ROUTE_CD" : "30300003" ,
"TOTAL_DIST" : "14614"
} ,
{
"BUSSTOP_ENG_NM" : "---" ,
"BUSSTOP_NM" : "별밭공원" ,
"BUSSTOP_SEQ" : "33" ,
"BUSSTOP_TP" : " " ,
"BUS_NODE_ID" : "8007410" ,
"BUS_STOP_ID" : "82590" ,
"GPS_LATI" : 36.34088 ,
"GPS_LONG" : 127.305374 ,
"ROAD_NM" : " " ,
"ROAD_NM_ADDR" : " " ,
"ROUTE_CD" : "30300003" ,
"TOTAL_DIST" : "15069"
} ,
{
"BUSSTOP_ENG_NM" : "---" ,
"BUSSTOP_NM" : "학하중앙로" ,
"BUSSTOP_SEQ" : "34" ,
"BUSSTOP_TP" : " " ,
"BUS_NODE_ID" : "8007241" ,
"BUS_STOP_ID" : "82460" ,
"GPS_LATI" : 36.34064 ,
"GPS_LONG" : 127.30772 ,
"ROAD_NM" : " " ,
"ROAD_NM_ADDR" : " " ,
"ROUTE_CD" : "30300003" ,
"TOTAL_DIST" : "15345"
} ,
{
"BUSSTOP_ENG_NM" : "---" ,
"BUSSTOP_NM" : "자광사" ,
"BUSSTOP_SEQ" : "35" ,
"BUSSTOP_TP" : " " ,
"BUS_NODE_ID" : "8007025" ,
"BUS_STOP_ID" : "82480" ,
"GPS_LATI" : 36.338432 ,
"GPS_LONG" : 127.31286 ,
"ROAD_NM" : " " ,
"ROAD_NM_ADDR" : " " ,
"ROUTE_CD" : "30300003" ,
"TOTAL_DIST" : "15869"
} ,
{
"BUSSTOP_ENG_NM" : "Hakha Elementary School" ,
"BUSSTOP_NM" : "학하초등학교" ,
"BUSSTOP_SEQ" : "36" ,
"BUSSTOP_TP" : " " ,
"BUS_NODE_ID" : "8002867" ,
"BUS_STOP_ID" : "40450" ,
"GPS_LATI" : 36.33476 ,
"GPS_LONG" : 127.312645 ,
"ROAD_NM" : " " ,
"ROAD_NM_ADDR" : " " ,
"ROUTE_CD" : "30300003" ,
"TOTAL_DIST" : "16436"
} ,
{
"BUSSTOP_ENG_NM" : "Sinsaen Hospital" ,
"BUSSTOP_NM" : "신생병원" ,
"BUSSTOP_SEQ" : "37" ,
"BUSSTOP_TP" : " " ,
"BUS_NODE_ID" : "8002104" ,
"BUS_STOP_ID" : "40430" ,
"GPS_LATI" : 36.331535 ,
"GPS_LONG" : 127.31168 ,
"ROAD_NM" : "진잠옛로" ,
"ROAD_NM_ADDR" : " " ,
"ROUTE_CD" : "30300003" ,
"TOTAL_DIST" : "16807"
} ,
{
"BUSSTOP_ENG_NM" : "Gyesan-dong" ,
"BUSSTOP_NM" : "계산동" ,
"BUSSTOP_SEQ" : "38" ,
"BUSSTOP_TP" : " " ,
"BUS_NODE_ID" : "8001093" ,
"BUS_STOP_ID" : "40490" ,
"GPS_LATI" : 36.325844 ,
"GPS_LONG" : 127.311424 ,
"ROAD_NM" : "진잠옛로" ,
"ROAD_NM_ADDR" : " " ,
"ROUTE_CD" : "30300003" ,
"TOTAL_DIST" : "17463"
} ,
{
"BUSSTOP_ENG_NM" : "Jinmi Foods Corporation" ,
"BUSSTOP_NM" : "밀머리네거리" ,
"BUSSTOP_SEQ" : "39" ,
"BUSSTOP_TP" : " " ,
"BUS_NODE_ID" : "8002670" ,
"BUS_STOP_ID" : "40360" ,
"GPS_LATI" : 36.324165 ,
"GPS_LONG" : 127.31174 ,
"ROAD_NM" : " " ,
"ROAD_NM_ADDR" : " " ,
"ROUTE_CD" : "30300003" ,
"TOTAL_DIST" : "17651"
} ,
{
"BUSSTOP_ENG_NM" : "Daejeong-dong" ,
"BUSSTOP_NM" : "대정동" ,
"BUSSTOP_SEQ" : "40" ,
"BUSSTOP_TP" : " " ,
"BUS_NODE_ID" : "8001439" ,
"BUS_STOP_ID" : "40260" ,
"GPS_LATI" : 36.319748 ,
"GPS_LONG" : 127.31369 ,
"ROAD_NM" : "유성대로" ,
"ROAD_NM_ADDR" : " " ,
"ROUTE_CD" : "30300003" ,
"TOTAL_DIST" : "18210"
} ,
{
"BUSSTOP_ENG_NM" : "Yongmeori" ,
"BUSSTOP_NM" : "용머리" ,
"BUSSTOP_SEQ" : "41" ,
"BUSSTOP_TP" : " " ,
"BUS_NODE_ID" : "8002275" ,
"BUS_STOP_ID" : "40280" ,
"GPS_LATI" : 36.316544 ,
"GPS_LONG" : 127.31473 ,
"ROAD_NM" : " " ,
"ROAD_NM_ADDR" : " " ,
"ROUTE_CD" : "30300003" ,
"TOTAL_DIST" : "18578"
} ,
{
"BUSSTOP_ENG_NM" : "Deurium Park" ,
"BUSSTOP_NM" : "드리움공원" ,
"BUSSTOP_SEQ" : "42" ,
"BUSSTOP_TP" : " " ,
"BUS_NODE_ID" : "8005714" ,
"BUS_STOP_ID" : "45300" ,
"GPS_LATI" : 36.315506 ,
"GPS_LONG" : 127.31987 ,
"ROAD_NM" : " " ,
"ROAD_NM_ADDR" : " " ,
"ROUTE_CD" : "30300003" ,
"TOTAL_DIST" : "19356"
} ,
{
"BUSSTOP_ENG_NM" : "Deurium Apts." ,
"BUSSTOP_NM" : "드리움아파트" ,
"BUSSTOP_SEQ" : "43" ,
"BUSSTOP_TP" : " " ,
"BUS_NODE_ID" : "8001580" ,
"BUS_STOP_ID" : "40330" ,
"GPS_LATI" : 36.31222 ,
"GPS_LONG" : 127.31981 ,
"ROAD_NM" : "대정로" ,
"ROAD_NM_ADDR" : " " ,
"ROUTE_CD" : "30300003" ,
"TOTAL_DIST" : "19721"
} ,
{
"BUSSTOP_ENG_NM" : "Gyochon-dong" ,
"BUSSTOP_NM" : "교촌동" ,
"BUSSTOP_SEQ" : "44" ,
"BUSSTOP_TP" : " " ,
"BUS_NODE_ID" : "8005711" ,
"BUS_STOP_ID" : "82110" ,
"GPS_LATI" : 36.311394 ,
"GPS_LONG" : 127.31724 ,
"ROAD_NM" : " " ,
"ROAD_NM_ADDR" : " " ,
"ROUTE_CD" : "30300003" ,
"TOTAL_DIST" : "20024"
} ,
{
"BUSSTOP_ENG_NM" : "Prison Entrance" ,
"BUSSTOP_NM" : "교도소입구" ,
"BUSSTOP_SEQ" : "45" ,
"BUSSTOP_TP" : " " ,
"BUS_NODE_ID" : "8001138" ,
"BUS_STOP_ID" : "40240" ,
"GPS_LATI" : 36.308952 ,
"GPS_LONG" : 127.31843 ,
"ROAD_NM" : "유성대로" ,
"ROAD_NM_ADDR" : " " ,
"ROUTE_CD" : "30300003" ,
"TOTAL_DIST" : "20315"
} ,
{
"BUSSTOP_ENG_NM" : "HanseungMemade Apts." ,
"BUSSTOP_NM" : "한승미메이드아파트" ,
"BUSSTOP_SEQ" : "46" ,
"BUSSTOP_TP" : " " ,
"BUS_NODE_ID" : "8002948" ,
"BUS_STOP_ID" : "40130" ,
"GPS_LATI" : 36.30684 ,
"GPS_LONG" : 127.319336 ,
"ROAD_NM" : " " ,
"ROAD_NM_ADDR" : " " ,
"ROUTE_CD" : "30300003" ,
"TOTAL_DIST" : "20564"
} ,
{
"BUSSTOP_ENG_NM" : "J Park Apts." ,
"BUSSTOP_NM" : "제이파크아파트" ,
"BUSSTOP_SEQ" : "47" ,
"BUSSTOP_TP" : " " ,
"BUS_NODE_ID" : "8002575" ,
"BUS_STOP_ID" : "40090" ,
"GPS_LATI" : 36.30404 ,
"GPS_LONG" : 127.319435 ,
"ROAD_NM" : " " ,
"ROAD_NM_ADDR" : " " ,
"ROUTE_CD" : "30300003" ,
"TOTAL_DIST" : "20970"
} ,
{
"BUSSTOP_ENG_NM" : "Gyochon Elementary School" ,
"BUSSTOP_NM" : "진잠향교" ,
"BUSSTOP_SEQ" : "48" ,
"BUSSTOP_TP" : " " ,
"BUS_NODE_ID" : "8002674" ,
"BUS_STOP_ID" : "40040" ,
"GPS_LATI" : 36.30332 ,
"GPS_LONG" : 127.31658 ,
"ROAD_NM" : " " ,
"ROAD_NM_ADDR" : " " ,
"ROUTE_CD" : "30300003" ,
"TOTAL_DIST" : "21239"
} ,
{
"BUSSTOP_ENG_NM" : "Jinjam Elementary School" ,
"BUSSTOP_NM" : "진잠초등학교" ,
"BUSSTOP_SEQ" : "49" ,
"BUSSTOP_TP" : " " ,
"BUS_NODE_ID" : "8005584" ,
"BUS_STOP_ID" : "45460" ,
"GPS_LATI" : 36.300694 ,
"GPS_LONG" : 127.3153 ,
"ROAD_NM" : " " ,
"ROAD_NM_ADDR" : " " ,
"ROUTE_CD" : "30300003" ,
"TOTAL_DIST" : "21585"
} ,
{
"BUSSTOP_ENG_NM" : "Wonnae-dong" ,
"BUSSTOP_NM" : "원내네거리" ,
"BUSSTOP_SEQ" : "50" ,
"BUSSTOP_TP" : " " ,
"BUS_NODE_ID" : "8002351" ,
"BUS_STOP_ID" : "40120" ,
"GPS_LATI" : 36.29977 ,
"GPS_LONG" : 127.31898 ,
"ROAD_NM" : " " ,
"ROAD_NM_ADDR" : " " ,
"ROUTE_CD" : "30300003" ,
"TOTAL_DIST" : "22028"
} ,
{
"BUSSTOP_ENG_NM" : "Saemmultown Apts." ,
"BUSSTOP_NM" : "샘물타운" ,
"BUSSTOP_SEQ" : "51" ,
"BUSSTOP_TP" : " " ,
"BUS_NODE_ID" : "8005652" ,
"BUS_STOP_ID" : "82130" ,
"GPS_LATI" : 36.298782 ,
"GPS_LONG" : 127.320114 ,
"ROAD_NM" : " " ,
"ROAD_NM_ADDR" : " " ,
"ROUTE_CD" : "30300003" ,
"TOTAL_DIST" : "22251"
} ,
{
"BUSSTOP_ENG_NM" : "Jinjamtown Apts." ,
"BUSSTOP_NM" : "진잠타운아파트" ,
"BUSSTOP_SEQ" : "52" ,
"BUSSTOP_TP" : " " ,
"BUS_NODE_ID" : "8005858" ,
"BUS_STOP_ID" : "40160" ,
"GPS_LATI" : 36.297318 ,
"GPS_LONG" : 127.32017 ,
"ROAD_NM" : " " ,
"ROAD_NM_ADDR" : " " ,
"ROUTE_CD" : "30300003" ,
"TOTAL_DIST" : "22414"
} ,
{
"BUSSTOP_ENG_NM" : "Hanareum Apts." ,
"BUSSTOP_NM" : "대전도시과학고등학교" ,
"BUSSTOP_SEQ" : "53" ,
"BUSSTOP_TP" : " " ,
"BUS_NODE_ID" : "8070008" ,
"BUS_STOP_ID" : "45620" ,
"GPS_LATI" : 36.296066 ,
"GPS_LONG" : 127.319496 ,
"ROAD_NM" : " " ,
"ROAD_NM_ADDR" : " " ,
"ROUTE_CD" : "30300003" ,
"TOTAL_DIST" : "22599"
} ,
{
"BUSSTOP_ENG_NM" : "Hanareum Apts." ,
"BUSSTOP_NM" : "한아름아파트" ,
"BUSSTOP_SEQ" : "54" ,
"BUSSTOP_TP" : "2" ,
"BUS_NODE_ID" : "8070009" ,
"BUS_STOP_ID" : "45610" ,
"GPS_LATI" : 36.29591 ,
"GPS_LONG" : 127.319565 ,
"ROAD_NM" : " " ,
"ROAD_NM_ADDR" : " " ,
"ROUTE_CD" : "30300003" ,
"TOTAL_DIST" : "22669"
} ,
{
"BUSSTOP_ENG_NM" : "Jinjamtown Apts." ,
"BUSSTOP_NM" : "진잠타운아파트" ,
"BUSSTOP_SEQ" : "55" ,
"BUSSTOP_TP" : " " ,
"BUS_NODE_ID" : "8005859" ,
"BUS_STOP_ID" : "40170" ,
"GPS_LATI" : 36.297245 ,
"GPS_LONG" : 127.32031 ,
"ROAD_NM" : " " ,
"ROAD_NM_ADDR" : " " ,
"ROUTE_CD" : "30300003" ,
"TOTAL_DIST" : "22855"
} ,
{
"BUSSTOP_ENG_NM" : "Saemmultown Apts." ,
"BUSSTOP_NM" : "샘물타운" ,
"BUSSTOP_SEQ" : "56" ,
"BUSSTOP_TP" : " " ,
"BUS_NODE_ID" : "8005705" ,
"BUS_STOP_ID" : "80040" ,
"GPS_LATI" : 36.29882 ,
"GPS_LONG" : 127.32031 ,
"ROAD_NM" : " " ,
"ROAD_NM_ADDR" : " " ,
"ROUTE_CD" : "30300003" ,
"TOTAL_DIST" : "23030"
} ,
{
"BUSSTOP_ENG_NM" : "Wonnae-dong" ,
"BUSSTOP_NM" : "원내네거리" ,
"BUSSTOP_SEQ" : "57" ,
"BUSSTOP_TP" : " " ,
"BUS_NODE_ID" : "8002352" ,
"BUS_STOP_ID" : "40110" ,
"GPS_LATI" : 36.2997 ,
"GPS_LONG" : 127.318184 ,
"ROAD_NM" : " " ,
"ROAD_NM_ADDR" : " " ,
"ROUTE_CD" : "30300003" ,
"TOTAL_DIST" : "23324"
} ,
{
"BUSSTOP_ENG_NM" : "Jinjam Elementary School" ,
"BUSSTOP_NM" : "진잠초등학교" ,
"BUSSTOP_SEQ" : "58" ,
"BUSSTOP_TP" : " " ,
"BUS_NODE_ID" : "8002679" ,
"BUS_STOP_ID" : "40010" ,
"GPS_LATI" : 36.301 ,
"GPS_LONG" : 127.315384 ,
"ROAD_NM" : " " ,
"ROAD_NM_ADDR" : " " ,
"ROUTE_CD" : "30300003" ,
"TOTAL_DIST" : "23724"
} ,
{
"BUSSTOP_ENG_NM" : "Gyochon Elementary School" ,
"BUSSTOP_NM" : "진잠향교" ,
"BUSSTOP_SEQ" : "59" ,
"BUSSTOP_TP" : " " ,
"BUS_NODE_ID" : "8002673" ,
"BUS_STOP_ID" : "40050" ,
"GPS_LATI" : 36.303165 ,
"GPS_LONG" : 127.316635 ,
"ROAD_NM" : " " ,
"ROAD_NM_ADDR" : " " ,
"ROUTE_CD" : "30300003" ,
"TOTAL_DIST" : "24030"
} ,
{
"BUSSTOP_ENG_NM" : "J Park Apts." ,
"BUSSTOP_NM" : "제이파크아파트" ,
"BUSSTOP_SEQ" : "60" ,
"BUSSTOP_TP" : " " ,
"BUS_NODE_ID" : "8002574" ,
"BUS_STOP_ID" : "40140" ,
"GPS_LATI" : 36.303707 ,
"GPS_LONG" : 127.31873 ,
"ROAD_NM" : " " ,
"ROAD_NM_ADDR" : " " ,
"ROUTE_CD" : "30300003" ,
"TOTAL_DIST" : "24229"
} ,
{
"BUSSTOP_ENG_NM" : "HanseungMemade Apts." ,
"BUSSTOP_NM" : "한승미메이드아파트" ,
"BUSSTOP_SEQ" : "61" ,
"BUSSTOP_TP" : " " ,
"BUS_NODE_ID" : "8002949" ,
"BUS_STOP_ID" : "40150" ,
"GPS_LATI" : 36.306267 ,
"GPS_LONG" : 127.31981 ,
"ROAD_NM" : " " ,
"ROAD_NM_ADDR" : " " ,
"ROUTE_CD" : "30300003" ,
"TOTAL_DIST" : "24632"
} ,
{
"BUSSTOP_ENG_NM" : "Prison Entrance" ,
"BUSSTOP_NM" : "교도소입구" ,
"BUSSTOP_SEQ" : "62" ,
"BUSSTOP_TP" : " " ,
"BUS_NODE_ID" : "8001137" ,
"BUS_STOP_ID" : "40250" ,
"GPS_LATI" : 36.30974 ,
"GPS_LONG" : 127.31823 ,
"ROAD_NM" : "유성대로" ,
"ROAD_NM_ADDR" : " " ,
"ROUTE_CD" : "30300003" ,
"TOTAL_DIST" : "25041"
} ,
{
"BUSSTOP_ENG_NM" : "Gyochon 3(sam)-tong" ,
"BUSSTOP_NM" : "교촌3통" ,
"BUSSTOP_SEQ" : "63" ,
"BUSSTOP_TP" : " " ,
"BUS_NODE_ID" : "8001140" ,
"BUS_STOP_ID" : "40300" ,
"GPS_LATI" : 36.31188 ,
"GPS_LONG" : 127.31859 ,
"ROAD_NM" : "대정남로" ,
"ROAD_NM_ADDR" : " " ,
"ROUTE_CD" : "30300003" ,
"TOTAL_DIST" : "25423"
} ,
{
"BUSSTOP_ENG_NM" : "Deurium Apts." ,
"BUSSTOP_NM" : "드리움아파트" ,
"BUSSTOP_SEQ" : "64" ,
"BUSSTOP_TP" : " " ,
"BUS_NODE_ID" : "8001579" ,
"BUS_STOP_ID" : "40340" ,
"GPS_LATI" : 36.313576 ,
"GPS_LONG" : 127.32004 ,
"ROAD_NM" : "대정로" ,
"ROAD_NM_ADDR" : " " ,
"ROUTE_CD" : "30300003" ,
"TOTAL_DIST" : "25708"
} ,
{
"BUSSTOP_ENG_NM" : "Deurium Park" ,
"BUSSTOP_NM" : "드리움공원" ,
"BUSSTOP_SEQ" : "65" ,
"BUSSTOP_TP" : " " ,
"BUS_NODE_ID" : "8005693" ,
"BUS_STOP_ID" : "45310" ,
"GPS_LATI" : 36.31542 ,
"GPS_LONG" : 127.32004 ,
"ROAD_NM" : " " ,
"ROAD_NM_ADDR" : " " ,
"ROUTE_CD" : "30300003" ,
"TOTAL_DIST" : "25912"
} ,
{
"BUSSTOP_ENG_NM" : "Freight Terminal" ,
"BUSSTOP_NM" : "화물터미널" ,
"BUSSTOP_SEQ" : "66" ,
"BUSSTOP_TP" : " " ,
"BUS_NODE_ID" : "8003001" ,
"BUS_STOP_ID" : "40320" ,
"GPS_LATI" : 36.31635 ,
"GPS_LONG" : 127.31892 ,
"ROAD_NM" : " " ,
"ROAD_NM_ADDR" : " " ,
"ROUTE_CD" : "30300003" ,
"TOTAL_DIST" : "26140"
} ,
{
"BUSSTOP_ENG_NM" : "Daejeong2(e)tong" ,
"BUSSTOP_NM" : "대정2통" ,
"BUSSTOP_SEQ" : "67" ,
"BUSSTOP_TP" : " " ,
"BUS_NODE_ID" : "8001438" ,
"BUS_STOP_ID" : "40290" ,
"GPS_LATI" : 36.315563 ,
"GPS_LONG" : 127.315384 ,
"ROAD_NM" : "유성대로" ,
"ROAD_NM_ADDR" : " " ,
"ROUTE_CD" : "30300003" ,
"TOTAL_DIST" : "26579"
} ,
{
"BUSSTOP_ENG_NM" : "Daejeong-dong" ,
"BUSSTOP_NM" : "대정동" ,
"BUSSTOP_SEQ" : "68" ,
"BUSSTOP_TP" : " " ,
"BUS_NODE_ID" : "8001440" ,
"BUS_STOP_ID" : "40270" ,
"GPS_LATI" : 36.319496 ,
"GPS_LONG" : 127.31408 ,
"ROAD_NM" : "유성대로" ,
"ROAD_NM_ADDR" : " " ,
"ROUTE_CD" : "30300003" ,
"TOTAL_DIST" : "27032"
} ,
{
"BUSSTOP_ENG_NM" : "Jinmi Foods Corporation" ,
"BUSSTOP_NM" : "밀머리네거리" ,
"BUSSTOP_SEQ" : "69" ,
"BUSSTOP_TP" : " " ,
"BUS_NODE_ID" : "8002669" ,
"BUS_STOP_ID" : "40370" ,
"GPS_LATI" : 36.32413 ,
"GPS_LONG" : 127.3119 ,
"ROAD_NM" : " " ,
"ROAD_NM_ADDR" : " " ,
"ROUTE_CD" : "30300003" ,
"TOTAL_DIST" : "27625"
} ,
{
"BUSSTOP_ENG_NM" : "Gyesan-dong" ,
"BUSSTOP_NM" : "계산동" ,
"BUSSTOP_SEQ" : "70" ,
"BUSSTOP_TP" : " " ,
"BUS_NODE_ID" : "8001092" ,
"BUS_STOP_ID" : "40500" ,
"GPS_LATI" : 36.32584 ,
"GPS_LONG" : 127.31161 ,
"ROAD_NM" : "진잠옛로" ,
"ROAD_NM_ADDR" : " " ,
"ROUTE_CD" : "30300003" ,
"TOTAL_DIST" : "27817"
} ,
{
"BUSSTOP_ENG_NM" : "Sinsaen Hospital" ,
"BUSSTOP_NM" : "신생병원" ,
"BUSSTOP_SEQ" : "71" ,
"BUSSTOP_TP" : " " ,
"BUS_NODE_ID" : "8002105" ,
"BUS_STOP_ID" : "40440" ,
"GPS_LATI" : 36.331585 ,
"GPS_LONG" : 127.31187 ,
"ROAD_NM" : "진잠옛로" ,
"ROAD_NM_ADDR" : " " ,
"ROUTE_CD" : "30300003" ,
"TOTAL_DIST" : "28481"
} ,
{
"BUSSTOP_ENG_NM" : "Hakha Elementary School" ,
"BUSSTOP_NM" : "학하초등학교" ,
"BUSSTOP_SEQ" : "72" ,
"BUSSTOP_TP" : " " ,
"BUS_NODE_ID" : "8002868" ,
"BUS_STOP_ID" : "40460" ,
"GPS_LATI" : 36.334797 ,
"GPS_LONG" : 127.31284 ,
"ROAD_NM" : " " ,
"ROAD_NM_ADDR" : " " ,
"ROUTE_CD" : "30300003" ,
"TOTAL_DIST" : "28854"
} ,
{
"BUSSTOP_ENG_NM" : "Hakha-dong" ,
"BUSSTOP_NM" : "학하동" ,
"BUSSTOP_SEQ" : "73" ,
"BUSSTOP_TP" : " " ,
"BUS_NODE_ID" : "8002863" ,
"BUS_STOP_ID" : "40480" ,
"GPS_LATI" : 36.33738 ,
"GPS_LONG" : 127.314766 ,
"ROAD_NM" : " " ,
"ROAD_NM_ADDR" : " " ,
"ROUTE_CD" : "30300003" ,
"TOTAL_DIST" : "29195"
} ,
{
"BUSSTOP_ENG_NM" : "---" ,
"BUSSTOP_NM" : "자광사" ,
"BUSSTOP_SEQ" : "74" ,
"BUSSTOP_TP" : " " ,
"BUS_NODE_ID" : "8007024" ,
"BUS_STOP_ID" : "82490" ,
"GPS_LATI" : 36.338562 ,
"GPS_LONG" : 127.31284 ,
"ROAD_NM" : " " ,
"ROAD_NM_ADDR" : " " ,
"ROUTE_CD" : "30300003" ,
"TOTAL_DIST" : "29419"
} ,
{
"BUSSTOP_ENG_NM" : "---" ,
"BUSSTOP_NM" : "학하중앙로" ,
"BUSSTOP_SEQ" : "75" ,
"BUSSTOP_TP" : " " ,
"BUS_NODE_ID" : "8007229" ,
"BUS_STOP_ID" : "82470" ,
"GPS_LATI" : 36.34089 ,
"GPS_LONG" : 127.307686 ,
"ROAD_NM" : " " ,
"ROAD_NM_ADDR" : " " ,
"ROUTE_CD" : "30300003" ,
"TOTAL_DIST" : "29950"
} ,
{
"BUSSTOP_ENG_NM" : "Byeolbat Park" ,
"BUSSTOP_NM" : "별밭공원" ,
"BUSSTOP_SEQ" : "76" ,
"BUSSTOP_TP" : " " ,
"BUS_NODE_ID" : "8007064" ,
"BUS_STOP_ID" : "45950" ,
"GPS_LATI" : 36.340622 ,
"GPS_LONG" : 127.305 ,
"ROAD_NM" : " " ,
"ROAD_NM_ADDR" : " " ,
"ROUTE_CD" : "30300003" ,
"TOTAL_DIST" : "30250"
} ,
{
"BUSSTOP_ENG_NM" : "Hakuitteul Apts." ,
"BUSSTOP_NM" : "학의뜰아파트" ,
"BUSSTOP_SEQ" : "77" ,
"BUSSTOP_TP" : " " ,
"BUS_NODE_ID" : "8003073" ,
"BUS_STOP_ID" : "45800" ,
"GPS_LATI" : 36.33584 ,
"GPS_LONG" : 127.30183 ,
"ROAD_NM" : " " ,
"ROAD_NM_ADDR" : " " ,
"ROUTE_CD" : "30300003" ,
"TOTAL_DIST" : "30621"
} ,
{
"BUSSTOP_ENG_NM" : "Hakuitteul Apts." ,
"BUSSTOP_NM" : "학하동종점" ,
"BUSSTOP_SEQ" : "78" ,
"BUSSTOP_TP" : " " ,
"BUS_NODE_ID" : "8003072" ,
"BUS_STOP_ID" : "45810" ,
"GPS_LATI" : 36.337196 ,
"GPS_LONG" : 127.30318 ,
"ROAD_NM" : " " ,
"ROAD_NM_ADDR" : " " ,
"ROUTE_CD" : "30300003" ,
"TOTAL_DIST" : "30898"
} ,
{
"BUSSTOP_ENG_NM" : "Mihak Apt." ,
"BUSSTOP_NM" : "미학아파트" ,
"BUSSTOP_SEQ" : "79" ,
"BUSSTOP_TP" : " " ,
"BUS_NODE_ID" : "8007230" ,
"BUS_STOP_ID" : "82450" ,
"GPS_LATI" : 36.34174 ,
"GPS_LONG" : 127.30312 ,
"ROAD_NM" : " " ,
"ROAD_NM_ADDR" : " " ,
"ROUTE_CD" : "30300003" ,
"TOTAL_DIST" : "31471"
} ,
{
"BUSSTOP_ENG_NM" : "---" ,
"BUSSTOP_NM" : "씨엔씨티에너지학하CES" ,
"BUSSTOP_SEQ" : "80" ,
"BUSSTOP_TP" : " " ,
"BUS_NODE_ID" : "8007231" ,
"BUS_STOP_ID" : "82430" ,
"GPS_LATI" : 36.34421 ,
"GPS_LONG" : 127.307976 ,
"ROAD_NM" : " " ,
"ROAD_NM_ADDR" : " " ,
"ROUTE_CD" : "30300003" ,
"TOTAL_DIST" : "32167"
} ,
{
"BUSSTOP_ENG_NM" : "---" ,
"BUSSTOP_NM" : "복용3통" ,
"BUSSTOP_SEQ" : "81" ,
"BUSSTOP_TP" : " " ,
"BUS_NODE_ID" : "8007232" ,
"BUS_STOP_ID" : "82410" ,
"GPS_LATI" : 36.34466 ,
"GPS_LONG" : 127.31346 ,
"ROAD_NM" : " " ,
"ROAD_NM_ADDR" : " " ,
"ROUTE_CD" : "30300003" ,
"TOTAL_DIST" : "32715"
} ,
{
"BUSSTOP_ENG_NM" : "---" ,
"BUSSTOP_NM" : "복용1통" ,
"BUSSTOP_SEQ" : "82" ,
"BUSSTOP_TP" : " " ,
"BUS_NODE_ID" : "8007233" ,
"BUS_STOP_ID" : "82390" ,
"GPS_LATI" : 36.34295 ,
"GPS_LONG" : 127.31758 ,
"ROAD_NM" : " " ,
"ROAD_NM_ADDR" : " " ,
"ROUTE_CD" : "30300003" ,
"TOTAL_DIST" : "33131"
} ,
{
"BUSSTOP_ENG_NM" : "---" ,
"BUSSTOP_NM" : "오토월드" ,
"BUSSTOP_SEQ" : "83" ,
"BUSSTOP_TP" : " " ,
"BUS_NODE_ID" : "8007169" ,
"BUS_STOP_ID" : "46240" ,
"GPS_LATI" : 36.34259 ,
"GPS_LONG" : 127.32124 ,
"ROAD_NM" : " " ,
"ROAD_NM_ADDR" : " " ,
"ROUTE_CD" : "30300003" ,
"TOTAL_DIST" : "33578"
} ,
{
"BUSSTOP_ENG_NM" : "Yuseong Middle School" ,
"BUSSTOP_NM" : "유성생명과학고" ,
"BUSSTOP_SEQ" : "84" ,
"BUSSTOP_TP" : " " ,
"BUS_NODE_ID" : "8002418" ,
"BUS_STOP_ID" : "41510" ,
"GPS_LATI" : 36.347733 ,
"GPS_LONG" : 127.32573 ,
"ROAD_NM" : " " ,
"ROAD_NM_ADDR" : " " ,
"ROUTE_CD" : "30300003" ,
"TOTAL_DIST" : "34091"
} ,
{
"BUSSTOP_ENG_NM" : "Guam-dong" ,
"BUSSTOP_NM" : "구암동" ,
"BUSSTOP_SEQ" : "85" ,
"BUSSTOP_TP" : " " ,
"BUS_NODE_ID" : "8001166" ,
"BUS_STOP_ID" : "41530" ,
"GPS_LATI" : 36.349415 ,
"GPS_LONG" : 127.327065 ,
"ROAD_NM" : "유성대로" ,
"ROAD_NM_ADDR" : " " ,
"ROUTE_CD" : "30300003" ,
"TOTAL_DIST" : "34496"
} ,
{
"BUSSTOP_ENG_NM" : "Korea National Open University" ,
"BUSSTOP_NM" : "유성구보훈회관" ,
"BUSSTOP_SEQ" : "86" ,
"BUSSTOP_TP" : " " ,
"BUS_NODE_ID" : "8001703" ,
"BUS_STOP_ID" : "41590" ,
"GPS_LATI" : 36.351322 ,
"GPS_LONG" : 127.332664 ,
"ROAD_NM" : "유성대로" ,
"ROAD_NM_ADDR" : " " ,
"ROUTE_CD" : "30300003" ,
"TOTAL_DIST" : "35212"
} ,
{
"BUSSTOP_ENG_NM" : "Yuseong High School" ,
"BUSSTOP_NM" : "유성고등학교" ,
"BUSSTOP_SEQ" : "87" ,
"BUSSTOP_TP" : " " ,
"BUS_NODE_ID" : "8002392" ,
"BUS_STOP_ID" : "41600" ,
"GPS_LATI" : 36.350636 ,
"GPS_LONG" : 127.33555 ,
"ROAD_NM" : " " ,
"ROAD_NM_ADDR" : " " ,
"ROUTE_CD" : "30300003" ,
"TOTAL_DIST" : "35481"
} ,
{
"BUSSTOP_ENG_NM" : "Riviera Negeori(Intersection)" ,
"BUSSTOP_NM" : "유성온천역" ,
"BUSSTOP_SEQ" : "88" ,
"BUSSTOP_TP" : " " ,
"BUS_NODE_ID" : "8005681" ,
"BUS_STOP_ID" : "82160" ,
"GPS_LATI" : 36.353737 ,
"GPS_LONG" : 127.33895 ,
"ROAD_NM" : " " ,
"ROAD_NM_ADDR" : " " ,
"ROUTE_CD" : "30300003" ,
"TOTAL_DIST" : "36054"
} ,
{
"BUSSTOP_ENG_NM" : "Yuseong Intercity Bus Terminal" ,
"BUSSTOP_NM" : "봉명네거리" ,
"BUSSTOP_SEQ" : "89" ,
"BUSSTOP_TP" : " " ,
"BUS_NODE_ID" : "8002403" ,
"BUS_STOP_ID" : "41180" ,
"GPS_LATI" : 36.355713 ,
"GPS_LONG" : 127.3346 ,
"ROAD_NM" : " " ,
"ROAD_NM_ADDR" : " " ,
"ROUTE_CD" : "30300003" ,
"TOTAL_DIST" : "36560"
} ,
{
"BUSSTOP_ENG_NM" : "Guam Station" ,
"BUSSTOP_NM" : "구암역" ,
"BUSSTOP_SEQ" : "90" ,
"BUSSTOP_TP" : " " ,
"BUS_NODE_ID" : "8005967" ,
"BUS_STOP_ID" : "82170" ,
"GPS_LATI" : 36.356323 ,
"GPS_LONG" : 127.332405 ,
"ROAD_NM" : " " ,
"ROAD_NM_ADDR" : " " ,
"ROUTE_CD" : "30300003" ,
"TOTAL_DIST" : "36769"
} ,
{
"BUSSTOP_ENG_NM" : "Yuseong Market" ,
"BUSSTOP_NM" : "유성시장" ,
"BUSSTOP_SEQ" : "91" ,
"BUSSTOP_TP" : " " ,
"BUS_NODE_ID" : "8002405" ,
"BUS_STOP_ID" : "42020" ,
"GPS_LATI" : 36.358654 ,
"GPS_LONG" : 127.33318 ,
"ROAD_NM" : " " ,
"ROAD_NM_ADDR" : " " ,
"ROUTE_CD" : "30300003" ,
"TOTAL_DIST" : "37174"
} ,
{
"BUSSTOP_ENG_NM" : "Jangdae Negeori(Intersection)" ,
"BUSSTOP_NM" : "유성초네거리" ,
"BUSSTOP_SEQ" : "92" ,
"BUSSTOP_TP" : " " ,
"BUS_NODE_ID" : "8002492" ,
"BUS_STOP_ID" : "42090" ,
"GPS_LATI" : 36.361187 ,
"GPS_LONG" : 127.33618 ,
"ROAD_NM" : " " ,
"ROAD_NM_ADDR" : " " ,
"ROUTE_CD" : "30300003" ,
"TOTAL_DIST" : "37562"
} ,
{
"BUSSTOP_ENG_NM" : "Gung-dong Negeori(Intersection)" ,
"BUSSTOP_NM" : "장대네거리" ,
"BUSSTOP_SEQ" : "93" ,
"BUSSTOP_TP" : " " ,
"BUS_NODE_ID" : "8001195" ,
"BUS_STOP_ID" : "42140" ,
"GPS_LATI" : 36.364986 ,
"GPS_LONG" : 127.33864 ,
"ROAD_NM" : "유성대로" ,
"ROAD_NM_ADDR" : " " ,
"ROUTE_CD" : "30300003" ,
"TOTAL_DIST" : "38036"
} ,
{
"BUSSTOP_ENG_NM" : "Chungnam National University Back Gate" ,
"BUSSTOP_NM" : "충대서문" ,
"BUSSTOP_SEQ" : "94" ,
"BUSSTOP_TP" : " " ,
"BUS_NODE_ID" : "8002741" ,
"BUS_STOP_ID" : "42530" ,
"GPS_LATI" : 36.369427 ,
"GPS_LONG" : 127.34012 ,
"ROAD_NM" : " " ,
"ROAD_NM_ADDR" : " " ,
"ROUTE_CD" : "30300003" ,
"TOTAL_DIST" : "38546"
} ,
{
"BUSSTOP_ENG_NM" : "Chungnam National University Playground" ,
"BUSSTOP_NM" : "북대전세무서/보훈요양원" ,
"BUSSTOP_SEQ" : "95" ,
"BUSSTOP_TP" : " " ,
"BUS_NODE_ID" : "8002739" ,
"BUS_STOP_ID" : "42560" ,
"GPS_LATI" : 36.37433 ,
"GPS_LONG" : 127.34173 ,
"ROAD_NM" : " " ,
"ROAD_NM_ADDR" : " " ,
"ROUTE_CD" : "30300003" ,
"TOTAL_DIST" : "39109"
} ,
{
"BUSSTOP_ENG_NM" : "Chungnam National University, College of Veterinary Medicine" ,
"BUSSTOP_NM" : "충대수의대" ,
"BUSSTOP_SEQ" : "96" ,
"BUSSTOP_TP" : " " ,
"BUS_NODE_ID" : "8002738" ,
"BUS_STOP_ID" : "42580" ,
"GPS_LATI" : 36.37747 ,
"GPS_LONG" : 127.34274 ,
"ROAD_NM" : " " ,
"ROAD_NM_ADDR" : " " ,
"ROUTE_CD" : "30300003" ,
"TOTAL_DIST" : "39469"
} ,
{
"BUSSTOP_ENG_NM" : "Hanul Apts. Back Gate" ,
"BUSSTOP_NM" : "한울아파트후문" ,
"BUSSTOP_SEQ" : "97" ,
"BUSSTOP_TP" : " " ,
"BUS_NODE_ID" : "8002956" ,
"BUS_STOP_ID" : "42960" ,
"GPS_LATI" : 36.385063 ,
"GPS_LONG" : 127.34603 ,
"ROAD_NM" : " " ,
"ROAD_NM_ADDR" : " " ,
"ROUTE_CD" : "30300003" ,
"TOTAL_DIST" : "40513"
} ,
{
"BUSSTOP_ENG_NM" : "Sinseong-dong Community Center" ,
"BUSSTOP_NM" : "신성동주민센터" ,
"BUSSTOP_SEQ" : "98" ,
"BUSSTOP_TP" : " " ,
"BUS_NODE_ID" : "8002111" ,
"BUS_STOP_ID" : "42990" ,
"GPS_LATI" : 36.38917 ,
"GPS_LONG" : 127.34697 ,
"ROAD_NM" : "가정로" ,
"ROAD_NM_ADDR" : " " ,
"ROUTE_CD" : "30300003" ,
"TOTAL_DIST" : "40980"
} ,
{
"BUSSTOP_ENG_NM" : "Jaun-dong Terminal" ,
"BUSSTOP_NM" : "자운대네거리" ,
"BUSSTOP_SEQ" : "99" ,
"BUSSTOP_TP" : " " ,
"BUS_NODE_ID" : "8002490" ,
"BUS_STOP_ID" : "43710" ,
"GPS_LATI" : 36.394432 ,
"GPS_LONG" : 127.34977 ,
"ROAD_NM" : " " ,
"ROAD_NM_ADDR" : " " ,
"ROUTE_CD" : "30300003" ,
"TOTAL_DIST" : "41660"
} ,
{
"BUSSTOP_ENG_NM" : "---" ,
"BUSSTOP_NM" : "국군대전병원" ,
"BUSSTOP_SEQ" : "100" ,
"BUSSTOP_TP" : " " ,
"BUS_NODE_ID" : "8007409" ,
"BUS_STOP_ID" : "82600" ,
"GPS_LATI" : 36.40054 ,
"GPS_LONG" : 127.34611 ,
"ROAD_NM" : " " ,
"ROAD_NM_ADDR" : " " ,
"ROUTE_CD" : "30300003" ,
"TOTAL_DIST" : "42438"
} ,
{
"BUSSTOP_ENG_NM" : "---" ,
"BUSSTOP_NM" : "육군정보통신학교" ,
"BUSSTOP_SEQ" : "101" ,
"BUSSTOP_TP" : " " ,
"BUS_NODE_ID" : "8007408" ,
"BUS_STOP_ID" : "82610" ,
"GPS_LATI" : 36.4017 ,
"GPS_LONG" : 127.33986 ,
"ROAD_NM" : " " ,
"ROAD_NM_ADDR" : " " ,
"ROUTE_CD" : "30300003" ,
"TOTAL_DIST" : "43089"
} ,
{
"BUSSTOP_ENG_NM" : "Welfare Center" ,
"BUSSTOP_NM" : "복지관" ,
"BUSSTOP_SEQ" : "102" ,
"BUSSTOP_TP" : " " ,
"BUS_NODE_ID" : "8005736" ,
"BUS_STOP_ID" : "82180" ,
"GPS_LATI" : 36.408287 ,
"GPS_LONG" : 127.33726 ,
"ROAD_NM" : " " ,
"ROAD_NM_ADDR" : " " ,
"ROUTE_CD" : "30300003" ,
"TOTAL_DIST" : "44013"
} ,
{
"BUSSTOP_ENG_NM" : "Military Apts." ,
"BUSSTOP_NM" : "군인아파트" ,
"BUSSTOP_SEQ" : "103" ,
"BUSSTOP_TP" : " " ,
"BUS_NODE_ID" : "8005966" ,
"BUS_STOP_ID" : "82190" ,
"GPS_LATI" : 36.410587 ,
"GPS_LONG" : 127.33727 ,
"ROAD_NM" : " " ,
"ROAD_NM_ADDR" : " " ,
"ROUTE_CD" : "30300003" ,
"TOTAL_DIST" : "44268"
} ,
{
"BUSSTOP_ENG_NM" : "Jaun Shopping center" ,
"BUSSTOP_NM" : "자운상가" ,
"BUSSTOP_SEQ" : "104" ,
"BUSSTOP_TP" : " " ,
"BUS_NODE_ID" : "8005671" ,
"BUS_STOP_ID" : "82200" ,
"GPS_LATI" : 36.41376 ,
"GPS_LONG" : 127.33733 ,
"ROAD_NM" : " " ,
"ROAD_NM_ADDR" : " " ,
"ROUTE_CD" : "30300003" ,
"TOTAL_DIST" : "44616"
} ,
{
"BUSSTOP_ENG_NM" : "Military Apts." ,
"BUSSTOP_NM" : "군인아파트" ,
"BUSSTOP_SEQ" : "105" ,
"BUSSTOP_TP" : " " ,
"BUS_NODE_ID" : "8005670" ,
"BUS_STOP_ID" : "82070" ,
"GPS_LATI" : 36.416744 ,
"GPS_LONG" : 127.338295 ,
"ROAD_NM" : " " ,
"ROAD_NM_ADDR" : " " ,
"ROUTE_CD" : "30300003" ,
"TOTAL_DIST" : "44987"
} ,
{
"BUSSTOP_ENG_NM" : "Military Apts.Terminal" ,
"BUSSTOP_NM" : "군인아파트종점" ,
"BUSSTOP_SEQ" : "106" ,
"BUSSTOP_TP" : "3" ,
"BUS_NODE_ID" : "8005970" ,
"BUS_STOP_ID" : "82210" ,
"GPS_LATI" : 36.418064 ,
"GPS_LONG" : 127.33674 ,
"ROAD_NM" : " " ,
"ROAD_NM_ADDR" : " " ,
"ROUTE_CD" : "30300003" ,
"TOTAL_DIST" : "45265"
} ,
{
"BUSSTOP_ENG_NM" : "Bongsan-dong" ,
"BUSSTOP_NM" : "봉산동기점" ,
"BUSSTOP_SEQ" : "1" ,
"BUSSTOP_TP" : "1" ,
"BUS_NODE_ID" : "8001783" ,
"BUS_STOP_ID" : "44490" ,
"GPS_LATI" : 36.448254 ,
"GPS_LONG" : 127.384605 ,
"ROAD_NM" : "봉산로" ,
"ROAD_NM_ADDR" : " " ,
"ROUTE_CD" : "30300004" ,
"TOTAL_DIST" : "72"
} ,
{
"BUSSTOP_ENG_NM" : "Bongsan 3(sam)-tong, Hyeopjin Transport Corporation" ,
"BUSSTOP_NM" : "협진운수" ,
"BUSSTOP_SEQ" : "2" ,
"BUSSTOP_TP" : " " ,
"BUS_NODE_ID" : "8001780" ,
"BUS_STOP_ID" : "44480" ,
"GPS_LATI" : 36.445457 ,
"GPS_LONG" : 127.38392 ,
"ROAD_NM" : "금남구즉로" ,
"ROAD_NM_ADDR" : " " ,
"ROUTE_CD" : "30300004" ,
"TOTAL_DIST" : "397"
} ,
{
"BUSSTOP_ENG_NM" : "---" ,
"BUSSTOP_NM" : "대광로제비앙아파트" ,
"BUSSTOP_SEQ" : "3" ,
"BUSSTOP_TP" : " " ,
"BUS_NODE_ID" : "8001285" ,
"BUS_STOP_ID" : "46770" ,
"GPS_LATI" : 36.44269 ,
"GPS_LONG" : 127.38441 ,
"ROAD_NM" : " " ,
"ROAD_NM_ADDR" : " " ,
"ROUTE_CD" : "30300004" ,
"TOTAL_DIST" : "722"
} ,
{
"BUSSTOP_ENG_NM" : "---" ,
"BUSSTOP_NM" : "구즉동주민센터" ,
"BUSSTOP_SEQ" : "4" ,
"BUSSTOP_TP" : " " ,
"BUS_NODE_ID" : "8007235" ,
"BUS_STOP_ID" : "82510" ,
"GPS_LATI" : 36.44035 ,
"GPS_LONG" : 127.38412 ,
"ROAD_NM" : " " ,
"ROAD_NM_ADDR" : " " ,
"ROUTE_CD" : "30300004" ,
"TOTAL_DIST" : "1087"
} ,
{
"BUSSTOP_ENG_NM" : "Gujeuk Elementary School" ,
"BUSSTOP_NM" : "구즉초등학교" ,
"BUSSTOP_SEQ" : "5" ,
"BUSSTOP_TP" : " " ,
"BUS_NODE_ID" : "8003056" ,
"BUS_STOP_ID" : "82530" ,
"GPS_LATI" : 36.43996 ,
"GPS_LONG" : 127.381805 ,
"ROAD_NM" : " " ,
"ROAD_NM_ADDR" : " " ,
"ROUTE_CD" : "30300004" ,
"TOTAL_DIST" : "1301"
} ,
{
"BUSSTOP_ENG_NM" : "Humansia Apts.1" ,
"BUSSTOP_NM" : "휴먼시아 1단지" ,
"BUSSTOP_SEQ" : "6" ,
"BUSSTOP_TP" : " " ,
"BUS_NODE_ID" : "8003057" ,
"BUS_STOP_ID" : "82550" ,
"GPS_LATI" : 36.437954 ,
"GPS_LONG" : 127.382324 ,
"ROAD_NM" : " " ,
"ROAD_NM_ADDR" : " " ,
"ROUTE_CD" : "30300004" ,
"TOTAL_DIST" : "1649"
} ,
{
"BUSSTOP_ENG_NM" : "Gujeuk-dong" ,
"BUSSTOP_NM" : "송강마을아파트" ,
"BUSSTOP_SEQ" : "7" ,
"BUSSTOP_TP" : " " ,
"BUS_NODE_ID" : "8001178" ,
"BUS_STOP_ID" : "44790" ,
"GPS_LATI" : 36.437572 ,
"GPS_LONG" : 127.38576 ,
"ROAD_NM" : "봉산로" ,
"ROAD_NM_ADDR" : " " ,
"ROUTE_CD" : "30300004" ,
"TOTAL_DIST" : "1986"
} ,
{
"BUSSTOP_ENG_NM" : "Bukdaejeon Nonghyup bank" ,
"BUSSTOP_NM" : "송강전통시장" ,
"BUSSTOP_SEQ" : "8" ,
"BUSSTOP_TP" : " " ,
"BUS_NODE_ID" : "8001794" ,
"BUS_STOP_ID" : "44780" ,
"GPS_LATI" : 36.43565 ,
"GPS_LONG" : 127.386406 ,
"ROAD_NM" : "구즉로" ,
"ROAD_NM_ADDR" : " " ,
"ROUTE_CD" : "30300004" ,
"TOTAL_DIST" : "2244"
} ,
{
"BUSSTOP_ENG_NM" : "Songgang Elementary School" ,
"BUSSTOP_NM" : "송강초등학교" ,
"BUSSTOP_SEQ" : "9" ,
"BUSSTOP_TP" : " " ,
"BUS_NODE_ID" : "8002050" ,
"BUS_STOP_ID" : "44730" ,
"GPS_LATI" : 36.43245 ,
"GPS_LONG" : 127.38405 ,
"ROAD_NM" : "구즉로" ,
"ROAD_NM_ADDR" : " " ,
"ROUTE_CD" : "30300004" ,
"TOTAL_DIST" : "2665"
} ,
{
"BUSSTOP_ENG_NM" : "Geurin Apts." ,
"BUSSTOP_NM" : "그린아파트" ,
"BUSSTOP_SEQ" : "10" ,
"BUSSTOP_TP" : " " ,
"BUS_NODE_ID" : "8001200" ,
"BUS_STOP_ID" : "44710" ,
"GPS_LATI" : 36.430603 ,
"GPS_LONG" : 127.38317 ,
"ROAD_NM" : "구즉로" ,
"ROAD_NM_ADDR" : " " ,
"ROUTE_CD" : "30300004" ,
"TOTAL_DIST" : "2884"
} ,
{
"BUSSTOP_ENG_NM" : "Hanmaeul Apts." ,
"BUSSTOP_NM" : "한마을아파트" ,
"BUSSTOP_SEQ" : "11" ,
"BUSSTOP_TP" : " " ,
"BUS_NODE_ID" : "8002909" ,
"BUS_STOP_ID" : "44740" ,
"GPS_LATI" : 36.428967 ,
"GPS_LONG" : 127.38423 ,
"ROAD_NM" : " " ,
"ROAD_NM_ADDR" : " " ,
"ROUTE_CD" : "30300004" ,
"TOTAL_DIST" : "3159"
} ,
{
"BUSSTOP_ENG_NM" : "Technovalley Apts.7" ,
"BUSSTOP_NM" : "테크노밸리7단지" ,
"BUSSTOP_SEQ" : "12" ,
"BUSSTOP_TP" : " " ,
"BUS_NODE_ID" : "8005972" ,
"BUS_STOP_ID" : "82220" ,
"GPS_LATI" : 36.424995 ,
"GPS_LONG" : 127.38413 ,
"ROAD_NM" : " " ,
"ROAD_NM_ADDR" : " " ,
"ROUTE_CD" : "30300004" ,
"TOTAL_DIST" : "3756"
} ,
{
"BUSSTOP_ENG_NM" : "Technovalley Apts.1" ,
"BUSSTOP_NM" : "테크노밸리1단지" ,
"BUSSTOP_SEQ" : "13" ,
"BUSSTOP_TP" : " " ,
"BUS_NODE_ID" : "8005846" ,
"BUS_STOP_ID" : "82230" ,
"GPS_LATI" : 36.421185 ,
"GPS_LONG" : 127.38115 ,
"ROAD_NM" : " " ,
"ROAD_NM_ADDR" : " " ,
"ROUTE_CD" : "30300004" ,
"TOTAL_DIST" : "4264"
} ,
{
"BUSSTOP_ENG_NM" : "Daedeok Valley I.C." ,
"BUSSTOP_NM" : "북대전IC네거리" ,
"BUSSTOP_SEQ" : "14" ,
"BUSSTOP_TP" : " " ,
"BUS_NODE_ID" : "8001320" ,
"BUS_STOP_ID" : "43540" ,
"GPS_LATI" : 36.417835 ,
"GPS_LONG" : 127.378105 ,
"ROAD_NM" : "대덕대로" ,
"ROAD_NM_ADDR" : " " ,
"ROUTE_CD" : "30300004" ,
"TOTAL_DIST" : "4727"
} ,
{
"BUSSTOP_ENG_NM" : "Daejeon Electronic Design High School" ,
"BUSSTOP_NM" : "전자디자인고" ,
"BUSSTOP_SEQ" : "15" ,
"BUSSTOP_TP" : " " ,
"BUS_NODE_ID" : "8002539" ,
"BUS_STOP_ID" : "43530" ,
"GPS_LATI" : 36.4124 ,
"GPS_LONG" : 127.377914 ,
"ROAD_NM" : " " ,
"ROAD_NM_ADDR" : " " ,
"ROUTE_CD" : "30300004" ,
"TOTAL_DIST" : "5342"
} ,
{
"BUSSTOP_ENG_NM" : "---" ,
"BUSSTOP_NM" : "에이팩" ,
"BUSSTOP_SEQ" : "16" ,
"BUSSTOP_TP" : " " ,
"BUS_NODE_ID" : "8007181" ,
"BUS_STOP_ID" : "46260" ,
"GPS_LATI" : 36.40399 ,
"GPS_LONG" : 127.37591 ,
"ROAD_NM" : " " ,
"ROAD_NM_ADDR" : " " ,
"ROUTE_CD" : "30300004" ,
"TOTAL_DIST" : "6388"
} ,
{
"BUSSTOP_ENG_NM" : "Korea Astronomy and Space Science Institute" ,
"BUSSTOP_NM" : "한국천문연구원" ,
"BUSSTOP_SEQ" : "17" ,
"BUSSTOP_TP" : " " ,
"BUS_NODE_ID" : "8005944" ,
"BUS_STOP_ID" : "46020" ,
"GPS_LATI" : 36.40003 ,
"GPS_LONG" : 127.374054 ,
"ROAD_NM" : " " ,
"ROAD_NM_ADDR" : " " ,
"ROUTE_CD" : "30300004" ,
"TOTAL_DIST" : "6861"
} ,
{
"BUSSTOP_ENG_NM" : "KT Daedeok R&D Center" ,
"BUSSTOP_NM" : "국가정보자원관리원" ,
"BUSSTOP_SEQ" : "18" ,
"BUSSTOP_TP" : " " ,
"BUS_NODE_ID" : "8003041" ,
"BUS_STOP_ID" : "43500" ,
"GPS_LATI" : 36.39692 ,
"GPS_LONG" : 127.37347 ,
"ROAD_NM" : " " ,
"ROAD_NM_ADDR" : " " ,
"ROUTE_CD" : "30300004" ,
"TOTAL_DIST" : "7211"
} ,
{
"BUSSTOP_ENG_NM" : "Daedeok High School" ,
"BUSSTOP_NM" : "대덕고등학교" ,
"BUSSTOP_SEQ" : "19" ,
"BUSSTOP_TP" : " " ,
"BUS_NODE_ID" : "8001312" ,
"BUS_STOP_ID" : "43160" ,
"GPS_LATI" : 36.386528 ,
"GPS_LONG" : 127.37846 ,
"ROAD_NM" : "대덕대로" ,
"ROAD_NM_ADDR" : " " ,
"ROUTE_CD" : "30300004" ,
"TOTAL_DIST" : "8698"
} ,
{
"BUSSTOP_ENG_NM" : "Gongdonggwanri Apts." ,
"BUSSTOP_NM" : "공동관리아파트" ,
"BUSSTOP_SEQ" : "20" ,
"BUSSTOP_TP" : " " ,
"BUS_NODE_ID" : "8001102" ,
"BUS_STOP_ID" : "43150" ,
"GPS_LATI" : 36.382385 ,
"GPS_LONG" : 127.37842 ,
"ROAD_NM" : "대덕대로" ,
"ROAD_NM_ADDR" : " " ,
"ROUTE_CD" : "30300004" ,
"TOTAL_DIST" : "9158"
} ,
{
"BUSSTOP_ENG_NM" : "Daedeok Middle School" ,
"BUSSTOP_NM" : "대덕중학교" ,
"BUSSTOP_SEQ" : "21" ,
"BUSSTOP_TP" : " " ,
"BUS_NODE_ID" : "8001325" ,
"BUS_STOP_ID" : "43110" ,
"GPS_LATI" : 36.37996 ,
"GPS_LONG" : 127.37843 ,
"ROAD_NM" : "대덕대로" ,
"ROAD_NM_ADDR" : " " ,
"ROUTE_CD" : "30300004" ,
"TOTAL_DIST" : "9427"
} ,
{
"BUSSTOP_ENG_NM" : "EXPO Science Park" ,
"BUSSTOP_NM" : "국립중앙과학관입구" ,
"BUSSTOP_SEQ" : "22" ,
"BUSSTOP_TP" : " " ,
"BUS_NODE_ID" : "8002203" ,
"BUS_STOP_ID" : "43210" ,
"GPS_LATI" : 36.37721 ,
"GPS_LONG" : 127.37889 ,
"ROAD_NM" : "엑스포로" ,
"ROAD_NM_ADDR" : " " ,
"ROUTE_CD" : "30300004" ,
"TOTAL_DIST" : "9735"
} ,
{
"BUSSTOP_ENG_NM" : "National Science Museum" ,
"BUSSTOP_NM" : "국립중앙과학관" ,
"BUSSTOP_SEQ" : "23" ,
"BUSSTOP_TP" : " " ,
"BUS_NODE_ID" : "8001182" ,
"BUS_STOP_ID" : "42930" ,
"GPS_LATI" : 36.374023 ,
"GPS_LONG" : 127.37793 ,
"ROAD_NM" : "대학로" ,
"ROAD_NM_ADDR" : " " ,
"ROUTE_CD" : "30300004" ,
"TOTAL_DIST" : "10188"
} ,
{
"BUSSTOP_ENG_NM" : "Research Institute of Public Health&Environment" ,
"BUSSTOP_NM" : "보건환경연구원" ,
"BUSSTOP_SEQ" : "24" ,
"BUSSTOP_TP" : " " ,
"BUS_NODE_ID" : "8001742" ,
"BUS_STOP_ID" : "42910" ,
"GPS_LATI" : 36.372185 ,
"GPS_LONG" : 127.37444 ,
"ROAD_NM" : "대학로" ,
"ROAD_NM_ADDR" : " " ,
"ROUTE_CD" : "30300004" ,
"TOTAL_DIST" : "10560"
} ,
{
"BUSSTOP_ENG_NM" : "Daejeon Regional Meteorological Administration" ,
"BUSSTOP_NM" : "대전지방기상청" ,
"BUSSTOP_SEQ" : "25" ,
"BUSSTOP_TP" : " " ,
"BUS_NODE_ID" : "8001431" ,
"BUS_STOP_ID" : "42890" ,
"GPS_LATI" : 36.36993 ,
"GPS_LONG" : 127.37101 ,
"ROAD_NM" : "대학로" ,
"ROAD_NM_ADDR" : " " ,
"ROUTE_CD" : "30300004" ,
"TOTAL_DIST" : "10957"
} ,
{
"BUSSTOP_ENG_NM" : "KAIST" ,
"BUSSTOP_NM" : "카이스트" ,
"BUSSTOP_SEQ" : "26" ,
"BUSSTOP_TP" : " " ,
"BUS_NODE_ID" : "8002872" ,
"BUS_STOP_ID" : "42830" ,
"GPS_LATI" : 36.365097 ,
"GPS_LONG" : 127.36284 ,
"ROAD_NM" : " " ,
"ROAD_NM_ADDR" : " " ,
"ROUTE_CD" : "30300004" ,
"TOTAL_DIST" : "11880"
} ,
{
"BUSSTOP_ENG_NM" : "Hanbit Apts." ,
"BUSSTOP_NM" : "한빛아파트" ,
"BUSSTOP_SEQ" : "27" ,
"BUSSTOP_TP" : " " ,
"BUS_NODE_ID" : "8002940" ,
"BUS_STOP_ID" : "42780" ,
"GPS_LATI" : 36.36263 ,
"GPS_LONG" : 127.35856 ,
"ROAD_NM" : " " ,
"ROAD_NM_ADDR" : " " ,
"ROUTE_CD" : "30300004" ,
"TOTAL_DIST" : "12353"
} ,
{
"BUSSTOP_ENG_NM" : "Yuseong-gu District Office" ,
"BUSSTOP_NM" : "유성구청" ,
"BUSSTOP_SEQ" : "28" ,
"BUSSTOP_TP" : " " ,
"BUS_NODE_ID" : "8002398" ,
"BUS_STOP_ID" : "42760" ,
"GPS_LATI" : 36.361366 ,
"GPS_LONG" : 127.356026 ,
"ROAD_NM" : " " ,
"ROAD_NM_ADDR" : " " ,
"ROUTE_CD" : "30300004" ,
"TOTAL_DIST" : "12622"
} ,
{
"BUSSTOP_ENG_NM" : "Chungnam National University, College of Agricultural College Entrance" ,
"BUSSTOP_NM" : "충대농대입구" ,
"BUSSTOP_SEQ" : "29" ,
"BUSSTOP_TP" : " " ,
"BUS_NODE_ID" : "8002735" ,
"BUS_STOP_ID" : "42710" ,
"GPS_LATI" : 36.36042 ,
"GPS_LONG" : 127.35253 ,
"ROAD_NM" : " " ,
"ROAD_NM_ADDR" : " " ,
"ROUTE_CD" : "30300004" ,
"TOTAL_DIST" : "12937"
} ,
{
"BUSSTOP_ENG_NM" : "Gung-dong" ,
"BUSSTOP_NM" : "궁동" ,
"BUSSTOP_SEQ" : "30" ,
"BUSSTOP_TP" : " " ,
"BUS_NODE_ID" : "8001193" ,
"BUS_STOP_ID" : "42700" ,
"GPS_LATI" : 36.360806 ,
"GPS_LONG" : 127.34954 ,
"ROAD_NM" : "대학로" ,
"ROAD_NM_ADDR" : " " ,
"ROUTE_CD" : "30300004" ,
"TOTAL_DIST" : "13212"
} ,
{
"BUSSTOP_ENG_NM" : "Chungnam National University" ,
"BUSSTOP_NM" : "충남대학교" ,
"BUSSTOP_SEQ" : "31" ,
"BUSSTOP_TP" : " " ,
"BUS_NODE_ID" : "8002721" ,
"BUS_STOP_ID" : "42600" ,
"GPS_LATI" : 36.36156 ,
"GPS_LONG" : 127.34412 ,
"ROAD_NM" : " " ,
"ROAD_NM_ADDR" : " " ,
"ROUTE_CD" : "30300004" ,
"TOTAL_DIST" : "13789"
} ,
{
"BUSSTOP_ENG_NM" : "Hanjin Officetel(Studio Apt.)" ,
"BUSSTOP_NM" : "온천교" ,
"BUSSTOP_SEQ" : "32" ,
"BUSSTOP_TP" : " " ,
"BUS_NODE_ID" : "8002961" ,
"BUS_STOP_ID" : "41350" ,
"GPS_LATI" : 36.357758 ,
"GPS_LONG" : 127.3426 ,
"ROAD_NM" : " " ,
"ROAD_NM_ADDR" : " " ,
"ROUTE_CD" : "30300004" ,
"TOTAL_DIST" : "14233"
} ,
{
"BUSSTOP_ENG_NM" : "Yuseong Spa Station Exit 6" ,
"BUSSTOP_NM" : "유성온천역6번출구" ,
"BUSSTOP_SEQ" : "33" ,
"BUSSTOP_TP" : " " ,
"BUS_NODE_ID" : "8002411" ,
"BUS_STOP_ID" : "41320" ,
"GPS_LATI" : 36.35488 ,
"GPS_LONG" : 127.34153 ,
"ROAD_NM" : " " ,
"ROAD_NM_ADDR" : " " ,
"ROUTE_CD" : "30300004" ,
"TOTAL_DIST" : "14561"
} ,
{
"BUSSTOP_ENG_NM" : "Yuseong Spa Station Exit 5" ,
"BUSSTOP_NM" : "유성온천역5번출구" ,
"BUSSTOP_SEQ" : "34" ,
"BUSSTOP_TP" : " " ,
"BUS_NODE_ID" : "8002410" ,
"BUS_STOP_ID" : "41290" ,
"GPS_LATI" : 36.35433 ,
"GPS_LONG" : 127.33983 ,
"ROAD_NM" : " " ,
"ROAD_NM_ADDR" : " " ,
"ROUTE_CD" : "30300004" ,
"TOTAL_DIST" : "14853"
} ,
{
"BUSSTOP_ENG_NM" : "Yuseong Intercity Bus Terminal" ,
"BUSSTOP_NM" : "봉명네거리" ,
"BUSSTOP_SEQ" : "35" ,
"BUSSTOP_TP" : " " ,
"BUS_NODE_ID" : "8002403" ,
"BUS_STOP_ID" : "41180" ,
"GPS_LATI" : 36.355713 ,
"GPS_LONG" : 127.3346 ,
"ROAD_NM" : " " ,
"ROAD_NM_ADDR" : " " ,
"ROUTE_CD" : "30300004" ,
"TOTAL_DIST" : "15345"
} ,
{
"BUSSTOP_ENG_NM" : "Taeneung charcoal Ribs Entrance" ,
"BUSSTOP_NM" : "구암동" ,
"BUSSTOP_SEQ" : "36" ,
"BUSSTOP_TP" : " " ,
"BUS_NODE_ID" : "8005829" ,
"BUS_STOP_ID" : "80550" ,
"GPS_LATI" : 36.35337 ,
"GPS_LONG" : 127.33268 ,
"ROAD_NM" : " " ,
"ROAD_NM_ADDR" : " " ,
"ROUTE_CD" : "30300004" ,
"TOTAL_DIST" : "15705"
} ,
{
"BUSSTOP_ENG_NM" : "Won-Buddhism" ,
"BUSSTOP_NM" : "원불교유성교당" ,
"BUSSTOP_SEQ" : "37" ,
"BUSSTOP_TP" : " " ,
"BUS_NODE_ID" : "8005660" ,
"BUS_STOP_ID" : "80480" ,
"GPS_LATI" : 36.350704 ,
"GPS_LONG" : 127.33156 ,
"ROAD_NM" : " " ,
"ROAD_NM_ADDR" : " " ,
"ROUTE_CD" : "30300004" ,
"TOTAL_DIST" : "16018"
} ,
{
"BUSSTOP_ENG_NM" : "Yuseong Bio Science Technology High School" ,
"BUSSTOP_NM" : "유성생명과학고" ,
"BUSSTOP_SEQ" : "38" ,
"BUSSTOP_TP" : " " ,
"BUS_NODE_ID" : "8007100" ,
"BUS_STOP_ID" : "80470" ,
"GPS_LATI" : 36.348442 ,
"GPS_LONG" : 127.33176 ,
"ROAD_NM" : " " ,
"ROAD_NM_ADDR" : " " ,
"ROUTE_CD" : "30300004" ,
"TOTAL_DIST" : "16326"
} ,
{
"BUSSTOP_ENG_NM" : "---" ,
"BUSSTOP_NM" : "대전예술고등학교" ,
"BUSSTOP_SEQ" : "39" ,
"BUSSTOP_TP" : " " ,
"BUS_NODE_ID" : "8007483" ,
"BUS_STOP_ID" : "46630" ,
"GPS_LATI" : 36.348347 ,
"GPS_LONG" : 127.33403 ,
"ROAD_NM" : " " ,
"ROAD_NM_ADDR" : " " ,
"ROUTE_CD" : "30300004" ,
"TOTAL_DIST" : "16531"
} ,
{
"BUSSTOP_ENG_NM" : "Yuseong Middle School" ,
"BUSSTOP_NM" : "유성중학교" ,
"BUSSTOP_SEQ" : "40" ,
"BUSSTOP_TP" : " " ,
"BUS_NODE_ID" : "8007028" ,
"BUS_STOP_ID" : "41500" ,
"GPS_LATI" : 36.346176 ,
"GPS_LONG" : 127.33553 ,
"ROAD_NM" : " " ,
"ROAD_NM_ADDR" : " " ,
"ROUTE_CD" : "30300004" ,
"TOTAL_DIST" : "16928"
} ,
{
"BUSSTOP_ENG_NM" : "---" ,
"BUSSTOP_NM" : "한라비발디아파트" ,
"BUSSTOP_SEQ" : "41" ,
"BUSSTOP_TP" : " " ,
"BUS_NODE_ID" : "8007026" ,
"BUS_STOP_ID" : "82570" ,
"GPS_LATI" : 36.3431 ,
"GPS_LONG" : 127.333496 ,
"ROAD_NM" : " " ,
"ROAD_NM_ADDR" : " " ,
"ROUTE_CD" : "30300004" ,
"TOTAL_DIST" : "17449"
} ,
{
"BUSSTOP_ENG_NM" : "Mongnyeon Apts." ,
"BUSSTOP_NM" : "목련아파트" ,
"BUSSTOP_SEQ" : "42" ,
"BUSSTOP_TP" : "2" ,
"BUS_NODE_ID" : "8005825" ,
"BUS_STOP_ID" : "82240" ,
"GPS_LATI" : 36.34664 ,
"GPS_LONG" : 127.33097 ,
"ROAD_NM" : " " ,
"ROAD_NM_ADDR" : " " ,
"ROUTE_CD" : "30300004" ,
"TOTAL_DIST" : "17964"
} ,
{
"BUSSTOP_ENG_NM" : "Yuseong Bio Science Technology High School" ,
"BUSSTOP_NM" : "유성생명과학고" ,
"BUSSTOP_SEQ" : "43" ,
"BUSSTOP_TP" : " " ,
"BUS_NODE_ID" : "8007100" ,
"BUS_STOP_ID" : "80470" ,
"GPS_LATI" : 36.348442 ,
"GPS_LONG" : 127.33176 ,
"ROAD_NM" : " " ,
"ROAD_NM_ADDR" : " " ,
"ROUTE_CD" : "30300004" ,
"TOTAL_DIST" : "18254"
} ,
{
"BUSSTOP_ENG_NM" : "---" ,
